[{"slug": "orange-warsaw", "name": "Orange Warsaw Festival", "city": "Warszawa", "genres": ["pop", "alternative", "hip-hop"], "lat": 52.1620222, "lon": 21.0099229, "precision": "venue", "tier": "B", "date_start": "2026-05-29", "date_end": "2026-05-30"}, {"slug": "mystic-festival", "name": "Mystic Festival", "city": "Gdansk", "genres": ["metal", "rock"], "lat": 54.4288032, "lon": 18.798327, "precision": "city", "tier": "B", "date_start": "2026-06-03", "date_end": "2026-06-06"}, {"slug": "tauron-nowa-muzyka", "name": "Tauron Nowa Muzyka Katowice", "city": "Katowice", "genres": ["electronic", "alternative", "jazz"], "lat": 50.2643597, "lon": 19.0308603, "precision": "venue", "tier": "D", "date_start": "2026-06-04", "date_end": "2026-06-07"}, {"slug": "warsaw-music-festival", "name": "Warsaw Music Festival", "city": "Warszawa", "genres": ["pop", "edm", "electronic"], "lat": 52.2204683, "lon": 21.0407462, "precision": "venue", "tier": "C", "date_start": "2026-06-13", "date_end": "2026-06-20"}, {"slug": "summer-punch", "name": "Summer Punch Festival", "city": "Warszawa", "genres": ["metal", "rock", "alternative"], "lat": 52.2260701, "lon": 20.9285031, "precision": "venue", "tier": "C", "date_start": "2026-06-18", "date_end": "2026-06-19"}, {"slug": "opener", "name": "Open'er Festival", "city": "Gdynia", "genres": ["pop", "rock", "electronic", "hip-hop"], "lat": 54.5233304, "lon": 18.6040279, "precision": "city", "tier": "A", "date_start": "2026-07-01", "date_end": "2026-07-04"}, {"slug": "audioriver", "name": "Audioriver Festival", "city": "Lodz", "genres": ["techno", "house", "electronic"], "lat": 51.7728245, "lon": 19.4784857, "precision": "city", "tier": "B", "date_start": "2026-07-10", "date_end": "2026-07-12"}, {"slug": "jarocin", "name": "Jarocin Festiwal", "city": "Jarocin", "genres": ["rock", "punk", "alternative"], "lat": 51.9739233, "lon": 17.5011254, "precision": "city", "tier": "A", "date_start": "2026-07-16", "date_end": "2026-07-19"}, {"slug": "lodz-summer-festival", "name": "Lodz Summer Festival", "city": "Lodz", "genres": ["pop", "hip-hop"], "lat": 51.7728245, "lon": 19.4784857, "precision": "city", "tier": "C", "date_start": "2026-07-25", "date_end": "2026-07-27"}, {"slug": "polandrock", "name": "Pol'and'Rock Festival", "city": "Czaplinek", "genres": ["rock", "punk", "metal"], "lat": 53.5190233, "lon": 16.2832, "precision": "venue", "tier": "A", "date_start": "2026-07-30", "date_end": "2026-08-01"}, {"slug": "sunrise-festival", "name": "Sunrise Festival", "city": "Kolobrzeg", "genres": ["edm", "trance", "house", "electronic"], "lat": 54.1759614, "lon": 15.5764209, "precision": "city", "tier": "B", "date_start": "2026-07-31", "date_end": "2026-08-02"}, {"slug": "off-festival", "name": "OFF Festival", "city": "Katowice", "genres": ["alternative", "indie", "electronic"], "lat": 50.2477506, "lon": 19.0472176, "precision": "venue", "tier": "A", "date_start": "2026-08-07", "date_end": "2026-08-09"}, {"slug": "bittersweet", "name": "BitterSweet Festival", "city": "Poznan", "genres": ["alternative", "electronic", "pop"], "lat": 52.4215502, "lon": 16.9345022, "precision": "venue", "tier": "C", "date_start": "2026-08-13", "date_end": "2026-08-15"}, {"slug": "rockowizna", "name": "Rockowizna Festiwal", "city": "trasa (Gdansk/Poznan/Krakow)", "genres": ["rock"], "lat": 54.4288032, "lon": 18.798327, "precision": "city", "tier": "C", "date_start": "2026-08-07", "date_end": "2026-08-29"}, {"slug": "up-to-date", "name": "Up To Date Festival", "city": "Bialystok", "genres": ["techno", "electronic", "alternative"], "lat": 53.132398, "lon": 23.1591679, "precision": "city", "tier": "D", "date_start": "2026-05-28", "date_end": "2026-05-30"}, {"slug": "garbicz", "name": "Garbicz Festival", "city": "Garbicz", "genres": ["electronic", "techno", "house"], "lat": 52.3087107, "lon": 14.9906063, "precision": "city", "tier": "D", "date_start": "2026-07-30", "date_end": "2026-08-03"}, {"slug": "beatland", "name": "Beatland Festival", "city": "Sucha Beskidzka", "genres": ["techno", "house", "electronic"], "lat": 49.7463161, "lon": 19.601491, "precision": "venue", "tier": "C", "date_start": "2026-07-25", "date_end": "2026-07-25"}, {"slug": "ostroda-reggae", "name": "Ostroda Reggae Festival", "city": "Ostroda", "genres": ["reggae", "dancehall", "world"], "lat": 53.7028533, "lon": 19.9623028, "precision": "city", "tier": "B", "date_start": "2026-07-23", "date_end": "2026-07-26"}, {"slug": "mazury-hip-hop", "name": "Mazury Hip-Hop Festiwal", "city": "Gizycko", "genres": ["hip-hop"], "lat": 54.0319395, "lon": 21.7491894, "precision": "venue", "tier": "B", "date_start": "2026-07-16", "date_end": "2026-07-18"}, {"slug": "castle-party", "name": "Castle Party", "city": "Bolkow", "genres": ["gothic", "alternative", "electronic"], "lat": 50.9217788, "lon": 16.0979331, "precision": "venue", "tier": "B", "date_start": "2026-07-16", "date_end": "2026-07-19"}, {"slug": "globaltica", "name": "Globaltica World Cultures Festival", "city": "Gdynia", "genres": ["world", "folk"], "lat": 54.4722776, "lon": 18.557234, "precision": "venue", "tier": "D", "date_start": "2026-07-17", "date_end": "2026-07-19"}, {"slug": "wrosound", "name": "WROsound Festival", "city": "Wroclaw", "genres": ["alternative", "electronic", "pop"], "lat": 51.1263106, "lon": 16.9781963, "precision": "city", "tier": "E", "date_start": "2026-07-17", "date_end": "2026-07-18"}, {"slug": "great-september", "name": "Great September Showcase Festival", "city": "Lodz", "genres": ["alternative", "pop", "electronic"], "lat": 51.7728245, "lon": 19.4784857, "precision": "city", "tier": "C", "date_start": "2026-09-10", "date_end": "2026-09-12"}, {"slug": "juwenalia-krakowskie", "name": "Juwenalia Krakowskie", "city": "Krakow", "genres": ["student", "pop", "rock", "hip-hop"], "lat": 50.0469432, "lon": 19.9971534, "precision": "city", "tier": "C", "date_start": "2026-05-13", "date_end": "2026-05-23"}, {"slug": "juwenalia-uw", "name": "Juwenalia Uniwersytetu Warszawskiego", "city": "Warszawa", "genres": ["student", "pop", "hip-hop"], "lat": 52.2333742, "lon": 21.0711489, "precision": "city", "tier": "E", "date_start": "2026-05-08", "date_end": "2026-05-09"}, {"slug": "kortowiada", "name": "Kortowiada", "city": "Olsztyn", "genres": ["student", "pop", "hip-hop", "rock"], "lat": 53.776644, "lon": 20.4777531, "precision": "city", "tier": "B", "date_start": "2026-05-27", "date_end": "2026-05-30"}, {"slug": "bachanalia", "name": "Bachanalia", "city": "Zielona Gora", "genres": ["student", "pop", "rock", "hip-hop"], "lat": 51.9275737, "lon": 15.5490421, "precision": "city", "tier": "C", "date_start": "2026-06-08", "date_end": "2026-06-13"}, {"slug": "igry", "name": "Igry (Juwenalia Politechniki Slaskiej)", "city": "Gliwice", "genres": ["student", "pop", "rock", "hip-hop"], "lat": 50.3011315, "lon": 18.6623472, "precision": "city", "tier": "D", "date_start": "2026-05-25", "date_end": "2026-05-30"}, {"slug": "fest-festival", "name": "FEST Festival", "city": "Chorzow", "genres": ["pop", "electronic", "hip-hop"], "lat": 50.2865654, "lon": 18.9870731, "precision": "venue", "tier": "B", "date_start": null, "date_end": null}, {"slug": "one-love-sound-fest", "name": "One Love Sound Fest", "city": "Wroclaw", "genres": ["reggae", "dancehall", "hip-hop"], "lat": 51.1263106, "lon": 16.9781963, "precision": "city", "tier": "C", "date_start": "2026-11-21", "date_end": "2026-11-21"}, {"slug": "warsaw-summer-jazz-days", "name": "Warsaw Summer Jazz Days", "city": "Warszawa", "genres": ["jazz"], "lat": 52.2333742, "lon": 21.0711489, "precision": "city", "tier": "D", "date_start": "2026-07-02", "date_end": "2026-07-05"}, {"slug": "zew-sie-budzi", "name": "ZEW sie budzi", "city": "Cisna", "genres": ["rock", "alternative", "punk"], "lat": 49.2131799, "lon": 22.3283323, "precision": "city", "tier": "D", "date_start": "2026-06-26", "date_end": "2026-06-28"}, {"slug": "ustrzycki-festiwal-rockowy", "name": "Ustrzycki Festiwal Rockowy", "city": "Ustrzyki Dolne", "genres": ["rock"], "lat": 49.4301874, "lon": 22.5877003, "precision": "city", "tier": "E", "date_start": "2026-08-14", "date_end": "2026-08-15"}, {"slug": "mayday-poland", "name": "MAYDAY Poland", "city": "Katowice", "genres": ["techno", "edm", "electronic"], "lat": 50.2661074, "lon": 19.0253277, "precision": "venue", "tier": "B", "date_start": "2026-11-10", "date_end": "2026-11-10"}, {"slug": "piknik-country-mragowo", "name": "Piknik Country & Folk Mragowo", "city": "Mragowo", "genres": ["country", "folk"], "lat": 53.8660707, "lon": 21.3045796, "precision": "city", "tier": "D", "date_start": "2026-07-24", "date_end": "2026-07-26"}, {"slug": "before-festival", "name": "Before Festival", "city": "Siedlce", "genres": ["hip-hop"], "lat": 52.1615938, "lon": 22.2812533, "precision": "city", "tier": "C", "date_start": "2026-06-20", "date_end": "2026-06-21"}, {"slug": "carbon-silesia-festival", "name": "CARBON Silesia Festival", "city": "Zabrze", "genres": ["electronic", "techno"], "lat": 50.3086154, "lon": 18.7863749, "precision": "city", "tier": "E", "date_start": "2026-06-19", "date_end": "2026-06-20"}, {"slug": "clout-festival", "name": "CLOUT Festival", "city": "Warszawa", "genres": ["hip-hop"], "lat": 52.2333742, "lon": 21.0711489, "precision": "city", "tier": "C", "date_start": "2026-07-10", "date_end": "2026-07-11"}, {"slug": "jazz-nad-odra", "name": "Jazz nad Odra", "city": "Wroclaw", "genres": ["jazz"], "lat": 51.1263106, "lon": 16.9781963, "precision": "city", "tier": "C", "date_start": "2026-04-22", "date_end": "2026-04-26"}, {"slug": "kazimiernikejszyn", "name": "Kazimiernikejszyn", "city": "Kazimierz Dolny", "genres": ["alternative", "folk", "pop"], "lat": 51.3220058, "lon": 21.947372, "precision": "city", "tier": "C", "date_start": "2026-07-15", "date_end": "2026-07-19"}, {"slug": "rap-poludnie", "name": "Rap Poludnie", "city": "Bielsko-Biala", "genres": ["hip-hop"], "lat": 49.822118, "lon": 19.0448936, "precision": "city", "tier": "D", "date_start": "2026-07-31", "date_end": "2026-08-02"}, {"slug": "ravekjavik", "name": "RAVEKJAVIK", "city": "Lodz", "genres": ["techno", "electronic"], "lat": 51.7728245, "lon": 19.4784857, "precision": "city", "tier": "E", "date_start": "2026-06-26", "date_end": "2026-06-27"}, {"slug": "reggae-nad-wislokiem", "name": "Reggae nad Wislokiem", "city": "Rzeszow", "genres": ["reggae", "world"], "lat": 50.013319, "lon": 22.0161677, "precision": "city", "tier": "D", "date_start": "2026-05-30", "date_end": "2026-05-30"}, {"slug": "winter-reggae", "name": "Winter Reggae", "city": "Gliwice", "genres": ["reggae", "dancehall", "dub"], "lat": 50.3011315, "lon": 18.6623472, "precision": "city", "tier": "E", "date_start": "2026-03-13", "date_end": "2026-03-14"}, {"slug": "wroclaw-hip-hop-festival", "name": "Wroclaw Hip Hop Festival", "city": "Wroclaw", "genres": ["hip-hop"], "lat": 51.1263106, "lon": 16.9781963, "precision": "city", "tier": "C", "date_start": "2026-11-20", "date_end": "2026-11-20"}, {"slug": "120-rap-fest", "name": "120 RAP FEST", "city": "Wrocław", "genres": ["hip-hop", "rap"], "lat": 51.1263106, "lon": 16.9781963, "precision": "city", "tier": "D", "date_start": "2026-02-26", "date_end": "2026-02-26"}, {"slug": "3-majowka", "name": "3-Majówka", "city": "Wrocław", "genres": ["indie rock", "punk", "rap", "pop", "dubstep", "drum and bass", "rock"], "lat": 51.1263106, "lon": 16.9781963, "precision": "city", "tier": "D", "date_start": "2026-05-01", "date_end": "2026-05-03"}, {"slug": "3era-festival", "name": "3ERA FESTIVAL 2026", "city": "Gdańsk", "genres": ["hip-hop", "rap", "electronic", "indie"], "lat": 54.3482907, "lon": 18.6540233, "precision": "city", "tier": "D", "date_start": "2026-08-28", "date_end": "2026-08-30"}, {"slug": "a-state-of-trance-festival", "name": "A State Of Trance Festival Poland", "city": "Warszawa", "genres": ["trance", "electronic"], "lat": 52.2333742, "lon": 21.0711489, "precision": "city", "tier": "D", "date_start": "2026-06-20", "date_end": "2026-06-20"}, {"slug": "acco-world-music-festiwal", "name": "Acco World Music Festiwal", "city": "Sulęczyno", "genres": ["akordeon", "tango", "jazz", "folk", "muzyka filmowa"], "lat": 54.2337562, "lon": 17.7744375, "precision": "city", "tier": "E", "date_start": "2026-07-13", "date_end": "2026-07-19"}, {"slug": "actus-humanus", "name": "Actus Humanus", "city": "Gdańsk", "genres": ["muzyka dawna", "muzyka poważna", "renesans", "barok", "średniowiecze"], "lat": 54.3482907, "lon": 18.6540233, "precision": "city", "tier": "C", "date_start": "2026-04-01", "date_end": "2026-04-05"}, {"slug": "african-beats-festival", "name": "African Beats Festival 2026", "city": "Kawęczyn", "genres": ["world music", "afrobeat", "saharan blues", "african music"], "lat": 51.9408843, "lon": 20.9064713, "precision": "city", "tier": "D", "date_start": "2026-08-07", "date_end": "2026-08-09"}, {"slug": "all-improvviso", "name": "All'Improvviso – Międzynarodowy Festiwal Muzyki Dawnej Improwizowanej", "city": "Gliwice", "genres": ["muzyka dawna", "improwizowana"], "lat": 50.3011315, "lon": 18.6623472, "precision": "city", "tier": "D", "date_start": "2026-05-10", "date_end": "2026-07-04"}, {"slug": "alternativ-fest", "name": "Alternativ Fest – II Nowogardzki Festiwal Muzyki Niezależnej", "city": "Nowogard", "genres": ["rock", "punk", "reggae", "metal", "hardcore", "muzyka niezależna"], "lat": 53.6687698, "lon": 15.1225889, "precision": "city", "tier": "E", "date_start": "2026-05-22", "date_end": "2026-05-23"}, {"slug": "alternativ-fest-echou", "name": "Alternativ Fest", "city": "Nowogard", "genres": ["alternatywa", "muzyka niezależna"], "lat": 53.6687698, "lon": 15.1225889, "precision": "city", "tier": "E", "date_start": "2026-05-22", "date_end": "2026-05-23"}, {"slug": "amfirock-festiwal", "name": "AmfiROCK Festiwal", "city": "Katowice", "genres": ["rock"], "lat": 50.2598987, "lon": 19.0215852, "precision": "city", "tier": "D", "date_start": "2026-09-04", "date_end": "2026-09-05"}, {"slug": "amfiteatr-hip-hop-festiwal", "name": "Amfiteatr Hip Hop Festiwal", "city": "Gorzów Wielkopolski", "genres": ["Hip Hop"], "lat": 52.7305756, "lon": 15.2107553, "precision": "city", "tier": "D", "date_start": "2026-06-28", "date_end": null}, {"slug": "antoniow-rock-festiwal", "name": "Antoniów Rock Festiwal", "city": "Radoszyce", "genres": ["rock", "metal"], "lat": 51.0736699, "lon": 20.2597677, "precision": "city", "tier": "E", "date_start": "2026-07-03", "date_end": "2026-07-04"}, {"slug": "arena-festival-film-music", "name": "Arena Festival film & music", "city": "Ostróda", "genres": ["muzyka filmowa"], "lat": 53.7028052, "lon": 19.9628638, "precision": "city", "tier": "D", "date_start": "2026-06-29", "date_end": "2026-07-01"}, {"slug": "around-the-rock", "name": "XXII Festiwal Around The Rock im. Grzegorza Wolnego", "city": "Czerwionka-Leszczyny", "genres": ["rock", "alternatywa"], "lat": 50.1449958, "lon": 18.6531994, "precision": "city", "tier": "C", "date_start": "2026-06-26", "date_end": "2026-06-26"}, {"slug": "avant-art-festival", "name": "Avant Art Festival", "city": "Warszawa / Wrocław", "genres": ["experimental music", "sound art", "performance", "visual arts", "film"], "lat": 52.2333742, "lon": 21.0711489, "precision": "city", "tier": "E", "date_start": "2026-09-16", "date_end": null}, {"slug": "baltic-opera-festival", "name": "Baltic Opera Festival", "city": "Sopot / Gdańsk", "genres": ["opera", "balet"], "lat": 54.4430399, "lon": 18.5613095, "precision": "city", "tier": "C", "date_start": "2026-07-02", "date_end": "2026-07-07"}, {"slug": "bangarang-festival", "name": "Bangarang Festival", "city": "Chwałkowo", "genres": ["metal", "punk", "hardcore", "rock"], "lat": 52.1918312, "lon": 17.2634923, "precision": "city", "tier": "C", "date_start": "2026-06-26", "date_end": "2026-06-27"}, {"slug": "bass-beat-festival", "name": "Bass&Beat Festival", "city": "Wrocław", "genres": ["bass", "beat", "muzyka współczesna", "elektroniczna"], "lat": 51.1263106, "lon": 16.9781963, "precision": "city", "tier": "C", "date_start": "2026-04-26", "date_end": "2026-04-26"}, {"slug": "bass-graj", "name": "Bass GrAJ Festival", "city": "Morzyszów", "genres": ["bass", "electronic", "sound system"], "lat": 50.4992245, "lon": 16.6911333, "precision": "city", "tier": "E", "date_start": "2026-06-26", "date_end": "2026-06-28"}, {"slug": "bass-planet", "name": "Bass Planet 2026", "city": "Szczecin", "genres": ["elektroniczna", "techno"], "lat": 53.4298114, "lon": 14.5928676, "precision": "city", "tier": "C", "date_start": "2026-03-14", "date_end": "2026-03-15"}, {"slug": "bassland", "name": "Bassland", "city": "Gdańsk", "genres": ["bass music", "drum and bass", "elektroniczna"], "lat": 54.3482907, "lon": 18.6540233, "precision": "city", "tier": "D", "date_start": "2026-03-21", "date_end": "2026-03-21"}, {"slug": "basso", "name": "BASSO", "city": "Warszawa", "genres": ["muzyka klasyczna", "muzyka współczesna"], "lat": 52.2333742, "lon": 21.0711489, "precision": "city", "tier": "C", "date_start": "2026-09-15", "date_end": null}, {"slug": "baszta-jazz-festival", "name": "Baszta Jazz Festival im. Jacka Mazura", "city": "Czchów", "genres": ["jazz", "jazz tradycyjny", "dixieland"], "lat": 49.8339446, "lon": 20.6731487, "precision": "city", "tier": "D", "date_start": "2026-07-10", "date_end": "2026-07-12"}, {"slug": "be-psychedelic-open-air", "name": "Be Psychedelic Open Air 2026", "city": "Stężyca", "genres": ["psychedelic", "electronic", "techno"], "lat": 51.5825969, "lon": 21.772083, "precision": "city", "tier": "C", "date_start": "2026-07-03", "date_end": "2026-07-06"}, {"slug": "beskidzki-festiwal-klasyki", "name": "Beskidzki Festiwal Klasyki \"Beskid Classics\"", "city": "Bielsko-Biała", "genres": ["muzyka klasyczna"], "lat": 49.8120785, "lon": 19.0291988, "precision": "city", "tier": "C", "date_start": null, "date_end": null}, {"slug": "bielska-zadymka-jazzowa", "name": "Bielska Zadymka Jazzowa", "city": "Bielsko-Biała", "genres": ["jazz"], "lat": 49.8120785, "lon": 19.0291988, "precision": "city", "tier": "C", "date_start": "2026-03-16", "date_end": "2026-03-22"}, {"slug": "bigga-fest", "name": "Bigga Fest Vol. 2", "city": "Warszawa", "genres": ["funk", "soul", "jazz", "rap", "psychodelia"], "lat": 52.2333742, "lon": 21.0711489, "precision": "city", "tier": "E", "date_start": "2026-02-28", "date_end": "2026-02-28"}, {"slug": "black-metal-assault", "name": "Black Metal Assault", "city": "Kraków", "genres": ["black metal"], "lat": 50.0469432, "lon": 19.9971534, "precision": "city", "tier": "D", "date_start": "2026-02-14", "date_end": "2026-02-14"}, {"slug": "black-metal-night-festival", "name": "Black Metal Night Festival Vol. VII", "city": "Szczecin", "genres": ["black metal", "metal"], "lat": 53.4298114, "lon": 14.5928676, "precision": "city", "tier": "E", "date_start": "2026-11-28", "date_end": "2026-11-28"}, {"slug": "black-roses-fest-kutno", "name": "Black Roses Fest Kutno", "city": "Kutno", "genres": ["metal", "death metal", "black metal", "melodic metal"], "lat": 52.2222131, "lon": 19.3874589, "precision": "city", "tier": "D", "date_start": "2026-11-28", "date_end": "2026-11-28"}, {"slug": "black-silesia-open-air-festival", "name": "Black Silesia Open Air Festival", "city": "Byczyna", "genres": ["metal", "extreme metal", "oldschool metal", "doom metal"], "lat": 51.1142355, "lon": 18.2143288, "precision": "city", "tier": "C", "date_start": "2026-06-12", "date_end": "2026-06-13"}, {"slug": "black-sugar", "name": "BLACK SUGAR 4: THE LIGHTS OF LEGENDS", "city": "Warszawa", "genres": ["hardstyle", "hardcore"], "lat": 52.2333742, "lon": 21.0711489, "precision": "city", "tier": "D", "date_start": "2026-09-19", "date_end": "2026-09-19"}, {"slug": "black-waves-fest", "name": "Black Waves Fest vol. 11", "city": "Jarocin", "genres": ["black metal", "death metal", "doom metal", "sludge"], "lat": 51.9739233, "lon": 17.5011254, "precision": "city", "tier": "D", "date_start": "2026-10-10", "date_end": "2026-10-10"}, {"slug": "blue-summer-jazz-festival", "name": "Blue Summer Jazz Festival", "city": "Poznań", "genres": ["jazz", "soul", "r&b", "hip-hop", "afrobeat", "elektronika"], "lat": 52.4006632, "lon": 16.9197326, "precision": "city", "tier": "C", "date_start": "2026-07-18", "date_end": "2026-07-19"}, {"slug": "blues-express", "name": "Blues Express", "city": "Piła", "genres": ["blues", "rock", "soul"], "lat": 53.1511324, "lon": 16.7380343, "precision": "city", "tier": "C", "date_start": "2026-07-03", "date_end": "2026-07-04"}, {"slug": "blues-na-swiecie-festival-kujawy-pomorze", "name": "Blues na Świecie Festival Kujawy/Pomorze", "city": "Świecie", "genres": ["blues"], "lat": 53.4072518, "lon": 18.4455253, "precision": "city", "tier": "D", "date_start": "2026-08-21", "date_end": "2026-08-22"}, {"slug": "blues-w-lesniczowce-mirachowo", "name": "Blues w Leśniczówce Mirachowo", "city": "Mirachowo", "genres": ["blues", "rhythm and blues"], "lat": 54.3950203, "lon": 18.0273525, "precision": "city", "tier": "E", "date_start": "2026-06-19", "date_end": "2026-06-20"}, {"slug": "borderline-fest", "name": "Borderline Fest", "city": "Białystok", "genres": ["hardcore punk", "punk rock"], "lat": 53.132398, "lon": 23.1591679, "precision": "city", "tier": "E", "date_start": "2026-08-28", "date_end": "2026-08-29"}, {"slug": "brasswood-festival", "name": "Brasswood Soundtracks", "city": "Sopot", "genres": ["ścieżki dźwiękowe", "muzyka filmowa", "elektronika"], "lat": 54.4430399, "lon": 18.5613095, "precision": "city", "tier": "D", "date_start": "2026-09-12", "date_end": "2026-09-12"}, {"slug": "break-in-classic", "name": "Break in Classic", "city": "Otwock Wielki", "genres": ["muzyka klasyczna", "crossover"], "lat": 52.0491934, "lon": 21.2474444, "precision": "city", "tier": "C", "date_start": "2026-07-31", "date_end": "2026-08-02"}, {"slug": "breakout-days", "name": "Rzeszów Breakout Days", "city": "Rzeszów", "genres": ["blues", "rock"], "lat": 50.013319, "lon": 22.0161677, "precision": "city", "tier": "D", "date_start": "2026-09-11", "date_end": "2026-09-13"}, {"slug": "brend-hip-hop-festiwal", "name": "Brend Hip Hop Festiwal", "city": "Rzeszów", "genres": ["hip hop"], "lat": 50.013319, "lon": 22.0161677, "precision": "city", "tier": "D", "date_start": "2026-08-22", "date_end": "2026-08-22"}, {"slug": "buduk-jazz-festiwal", "name": "Buduk Jazz Festiwal", "city": "Gulbin", "genres": ["jazz", "blues"], "lat": 54.0009917, "lon": 23.2574311, "precision": "city", "tier": "D", "date_start": "2026-07-17", "date_end": "2026-07-17"}, {"slug": "bydgoski-festiwal-muzyczny", "name": "Bydgoski Festiwal Muzyczny", "city": "Bydgoszcz", "genres": ["muzyka współczesna", "muzyka klasyczna", "muzyka chóralna"], "lat": 53.1297127, "lon": 18.0294488, "precision": "city", "tier": "C", "date_start": "2026-09-18", "date_end": "2026-10-16"}, {"slug": "bydgoski-festiwal-operowy", "name": "XXXII Bydgoski Festiwal Operowy", "city": "Bydgoszcz", "genres": ["opera", "operetka", "balet"], "lat": 53.1297127, "lon": 18.0294488, "precision": "city", "tier": "D", "date_start": "2026-04-25", "date_end": "2026-05-10"}, {"slug": "bydgoszcz-city-life-festival", "name": "Bydgoszcz City Life Festival", "city": "Bydgoszcz", "genres": ["rap", "pop", "rock", "alternatywa"], "lat": 53.1297127, "lon": 18.0294488, "precision": "city", "tier": "C", "date_start": "2026-06-05", "date_end": "2026-06-07"}, {"slug": "bydgoszcz-hip-hop-festival", "name": "Bydgoszcz Hip-Hop Festival", "city": "Bydgoszcz", "genres": ["hip-hop", "rap"], "lat": 53.1297127, "lon": 18.0294488, "precision": "city", "tier": "D", "date_start": "2026-09-04", "date_end": "2026-09-05"}, {"slug": "carpathia-festival", "name": "XXII Międzynarodowy Festiwal Piosenki Carpathia Festival", "city": "Rzeszów", "genres": ["piosenka", "muzyka autorska"], "lat": 50.013319, "lon": 22.0161677, "precision": "city", "tier": "C", "date_start": "2026-07-25", "date_end": "2026-07-26"}, {"slug": "cavatina-guitar-festival", "name": "Cavatina Guitar Festival", "city": "Bielsko-Biała", "genres": ["gitara klasyczna", "gitara akustyczna", "gitara elektryczna", "muzyka poważna"], "lat": 49.8120785, "lon": 19.0291988, "precision": "city", "tier": "D", "date_start": "2026-05-23", "date_end": "2026-05-24"}, {"slug": "cay-poznan-ukulele", "name": "Cały Poznań Ukulele", "city": "Poznań", "genres": ["ukulele", "muzyka folkowa"], "lat": 52.4006632, "lon": 16.9197326, "precision": "city", "tier": "D", "date_start": "2026-06-04", "date_end": "2026-06-07"}, {"slug": "centralny-plac-muzyki", "name": "Centralny Plac Muzyki", "city": "Warszawa", "genres": ["opera", "muzyka klasyczna", "musical"], "lat": 52.2333742, "lon": 21.0711489, "precision": "city", "tier": "D", "date_start": "2026-06-19", "date_end": "2026-07-07"}, {"slug": "chatka-blues-festival", "name": "Chatka Blues Festival", "city": "Lublin", "genres": ["blues"], "lat": 51.250559, "lon": 22.5701022, "precision": "city", "tier": "D", "date_start": null, "date_end": null}, {"slug": "chopin-i-jego-europa", "name": "Chopin i jego Europa", "city": "Warszawa", "genres": ["muzyka klasyczna", "fortepian", "muzyka symfoniczna"], "lat": 52.2333742, "lon": 21.0711489, "precision": "city", "tier": "C", "date_start": "2026-08-24", "date_end": "2026-09-30"}, {"slug": "cieszanow-rock-festiwal", "name": "Cieszanów Rock Festiwal", "city": "Cieszanów", "genres": ["rock"], "lat": 50.2454329, "lon": 23.1301265, "precision": "city", "tier": "C", "date_start": "2026-08-13", "date_end": "2026-08-15"}, {"slug": "city-music-festival", "name": "City Music Festival", "city": "Kielce", "genres": ["hip-hop", "rap", "trap"], "lat": 50.8719903, "lon": 20.6310488, "precision": "city", "tier": "E", "date_start": "2026-05-01", "date_end": "2026-05-01"}, {"slug": "co-jest-grane-festival", "name": "Co Jest Grane Festival", "city": "Warszawa", "genres": ["muzyka", "sztuka", "wielogatunkowy"], "lat": 52.2333742, "lon": 21.0711489, "precision": "city", "tier": "D", "date_start": "2026-06-14", "date_end": "2026-06-15"}, {"slug": "corno-brass-music-festival", "name": "CORNO - Brass Music Festival", "city": "Zielona Góra", "genres": ["muzyka dęta", "brass", "muzyka klasyczna"], "lat": 51.9275737, "lon": 15.5490421, "precision": "city", "tier": "C", "date_start": "2026-08-02", "date_end": "2026-08-08"}, {"slug": "country-rock-festiwal", "name": "Country&Rock Festiwal Lesko", "city": "Lesko", "genres": ["country", "rock"], "lat": 49.4689014, "lon": 22.3303816, "precision": "city", "tier": "D", "date_start": "2026-07-03", "date_end": "2026-07-04"}, {"slug": "czarne-rewiry-metal-festiwal", "name": "Czarne Rewiry Metal Festiwal", "city": "Wrocław", "genres": ["metal"], "lat": 51.1263106, "lon": 16.9781963, "precision": "city", "tier": "D", "date_start": "2026-07-24", "date_end": "2026-07-25"}, {"slug": "d-i-y-hardcore-punk-fest", "name": "D.I.Y. Hardcore Punk Fest Vol. 18", "city": "Gdynia", "genres": ["hardcore punk", "punk rock", "crust punk"], "lat": 54.5233304, "lon": 18.6040279, "precision": "city", "tier": "E", "date_start": "2026-04-24", "date_end": "2026-04-25"}, {"slug": "dark-decay-festival", "name": "Dark Decay Festival", "city": "Poznań", "genres": ["death rock", "dark rock", "metal"], "lat": 52.4006632, "lon": 16.9197326, "precision": "city", "tier": "C", "date_start": "2026-06-25", "date_end": "2026-06-27"}, {"slug": "death-ceremony-2026", "name": "Death Ceremony 2026", "city": "Katowice", "genres": ["metal", "death metal", "black metal"], "lat": 50.2598987, "lon": 19.0215852, "precision": "city", "tier": "D", "date_start": "2026-10-31", "date_end": "2026-10-31"}, {"slug": "december-s-doom", "name": "December's Doom", "city": "Warszawa", "genres": null, "lat": 52.2333742, "lon": 21.0711489, "precision": "city", "tier": "E", "date_start": "2026-12-05", "date_end": "2026-12-05"}, {"slug": "defender-salt-wave-festival", "name": "Defender Salt Wave Festival", "city": "Jastarnia", "genres": ["electronic", "rap", "rock", "rave"], "lat": 54.702764, "lon": 18.6712892, "precision": "city", "tier": "C", "date_start": "2026-07-31", "date_end": "2026-08-01"}, {"slug": "delfinalia", "name": "DELFINALIA 2026", "city": "Gdynia", "genres": ["hip-hop", "rap", "electronic"], "lat": 54.5233304, "lon": 18.6040279, "precision": "city", "tier": "E", "date_start": "2026-05-29", "date_end": "2026-05-30"}, {"slug": "disco-hit-festival", "name": "Disco Hit Festival Kobylnica", "city": "Kobylnica", "genres": ["disco polo", "muzyka taneczna", "disco"], "lat": 54.4397259, "lon": 16.9968076, "precision": "city", "tier": "E", "date_start": "2026-08-05", "date_end": null}, {"slug": "disco-polo-festiwal", "name": "Festiwal Disco Polo", "city": "Olsztyn", "genres": ["disco polo", "dance", "muzyka taneczna"], "lat": 53.776644, "lon": 20.4777531, "precision": "city", "tier": "D", "date_start": "2026-07-11", "date_end": "2026-07-11"}, {"slug": "diy-hardcore-punk-fest", "name": "DIY Hardcore Punk Fest Vol. 18", "city": "Gdynia", "genres": ["hardcore", "punk", "crusts"], "lat": 54.5233304, "lon": 18.6040279, "precision": "city", "tier": "E", "date_start": "2026-04-24", "date_end": "2026-04-25"}, {"slug": "diy-hardcore-punk-festiwal", "name": "DIY Hardcore Punk Festiwal", "city": "Gdańsk/Gdynia", "genres": ["hardcore", "punk", "rock"], "lat": 54.3482907, "lon": 18.6540233, "precision": "city", "tier": "D", "date_start": "2026-04-24", "date_end": "2026-04-25"}, {"slug": "dla-ciebie-festiwal", "name": "Podlaskie Dla Ciebie. Festiwal", "city": "Białystok", "genres": ["hip-hop", "rap"], "lat": 53.132398, "lon": 23.1591679, "precision": "city", "tier": "C", "date_start": "2026-09-04", "date_end": "2026-09-05"}, {"slug": "dni-messiaena", "name": "Międzynarodowe Dni Messiaena Görlitz-Zgorzelec", "city": "Zgorzelec", "genres": ["muzyka klasyczna", "muzyka współczesna"], "lat": 51.1477005, "lon": 15.0079028, "precision": "city", "tier": "D", "date_start": "2026-01-15", "date_end": "2026-05-03"}, {"slug": "dojlidy-szanty-folk-festiwal", "name": "Dojlidy Szanty Folk Festiwal", "city": "Białystok", "genres": ["szanty", "folk"], "lat": 53.132398, "lon": 23.1591679, "precision": "city", "tier": "C", "date_start": "2026-06-13", "date_end": "2026-06-14"}, {"slug": "dolnoslaski-festiwal-muzyczny", "name": "Dolnośląski Festiwal Muzyczny", "city": "Kłodzko, Bardo, Polanica-Zdrój", "genres": ["muzyka klasyczna", "romantyzm"], "lat": 50.4337118, "lon": 16.6422465, "precision": "city", "tier": "E", "date_start": "2026-06-20", "date_end": null}, {"slug": "dreamstate", "name": "Dreamstate Europe 2026", "city": "Gliwice", "genres": ["trance"], "lat": 50.3011315, "lon": 18.6623472, "precision": "city", "tier": "C", "date_start": "2026-04-11", "date_end": "2026-04-11"}, {"slug": "drumfest", "name": "DRUMFEST – Międzynarodowy Festiwal Perkusyjny", "city": "Opole", "genres": ["perkusja", "jazz", "funk", "rock"], "lat": 50.6787929, "lon": 17.9298844, "precision": "city", "tier": "C", "date_start": null, "date_end": null}, {"slug": "drums-fusion", "name": "Drums Fusion - Międzynarodowy Festiwal Rytmu i Sztuki Perkusyjnej", "city": "Bydgoszcz", "genres": ["muzyka perkusyjna", "jazz", "rytmy świata", "fado"], "lat": 53.1297127, "lon": 18.0294488, "precision": "city", "tier": "C", "date_start": "2026-05-22", "date_end": "2026-05-29"}, {"slug": "dub-foundation-festival", "name": "Dub Foundation Festival", "city": "Kraków", "genres": ["elektroniczna", "dub", "jamajska"], "lat": 50.0469432, "lon": 19.9971534, "precision": "city", "tier": "D", "date_start": "2026-06-03", "date_end": "2026-06-03"}, {"slug": "dub-nad-wda", "name": "Dub nad Wdą", "city": "Borsk", "genres": ["dub", "reggae", "jungle", "dubstep", "drum and bass"], "lat": 53.9498005, "lon": 17.9260592, "precision": "city", "tier": "E", "date_start": null, "date_end": null}, {"slug": "duetomania", "name": "VI Międzynarodowy Festiwal Muzyczny Duetomania", "city": "Poznań", "genres": ["muzyka duetowa", "muzyka kameralna"], "lat": 52.4006632, "lon": 16.9197326, "precision": "city", "tier": "D", "date_start": "2026-06-13", "date_end": "2026-06-20"}, {"slug": "dzieciecy-i-modziezowy-festiwal-piosenki", "name": "Dziecięcy i Młodzieżowy Festiwal Piosenki", "city": "Zielona Góra", "genres": ["piosenka", "muzyka"], "lat": 51.9275737, "lon": 15.5490421, "precision": "city", "tier": "D", "date_start": "2026-04-15", "date_end": "2026-04-16"}, {"slug": "dzwieki-ponocy", "name": "Festiwal \"Dźwięki Północy\"", "city": "Gdańsk", "genres": ["folk", "muzyka tradycyjna", "kultury Morza Bałtyckiego"], "lat": 54.3482907, "lon": 18.6540233, "precision": "city", "tier": "D", "date_start": "2026-07-09", "date_end": "2026-07-12"}, {"slug": "early-music-festival", "name": "Early Music Festival", "city": "Kielce", "genres": ["muzyka dawna", "barok", "renesans", "średniowiecze"], "lat": 50.8719903, "lon": 20.6310488, "precision": "city", "tier": "C", "date_start": "2026-08-31", "date_end": "2026-09-04"}, {"slug": "ekipa-festiwal", "name": "EKIPA Festiwal '26", "city": "Kraków", "genres": ["pop", "hip-hop", "entertainment"], "lat": 50.0469432, "lon": 19.9971534, "precision": "city", "tier": "C", "date_start": "2026-06-06", "date_end": "2026-06-06"}, {"slug": "electrum-ambient-park", "name": "Electrum Ambient Park", "city": "Białystok", "genres": ["ambient", "electronic"], "lat": 53.132398, "lon": 23.1591679, "precision": "city", "tier": "D", "date_start": "2026-08-15", "date_end": "2026-08-15"}, {"slug": "electrum-up-to-date-festival", "name": "Electrum Up To Date Festival", "city": "Białystok", "genres": ["electronic", "techno"], "lat": 53.132398, "lon": 23.1591679, "precision": "city", "tier": "C", "date_start": "2026-05-28", "date_end": "2026-05-30"}, {"slug": "enea-edison-festival", "name": "ENEA Edison Festival", "city": "Baranowo", "genres": ["pop", "rock", "indie"], "lat": 53.8274007, "lon": 21.448424, "precision": "city", "tier": "C", "date_start": "2026-07-03", "date_end": "2026-07-04"}, {"slug": "energa-ladies-jazz-festival", "name": "Energa Ladies' Jazz Festival", "city": "Gdynia", "genres": ["jazz"], "lat": 54.5233304, "lon": 18.6040279, "precision": "city", "tier": "C", "date_start": "2026-07-20", "date_end": "2026-07-26"}, {"slug": "energa-siesta-festival", "name": "Energa Siesta Festival", "city": "Gdynia", "genres": ["world music", "jazz", "kultura luzofońska", "bolero", "morna", "samba"], "lat": 54.5233304, "lon": 18.6040279, "precision": "city", "tier": "D", "date_start": "2026-11-07", "date_end": "2026-11-10"}, {"slug": "enter-enea-festival", "name": "Enter Enea Festival", "city": "Poznań", "genres": ["jazz"], "lat": 52.4006632, "lon": 16.9197326, "precision": "city", "tier": "E", "date_start": "2026-05-31", "date_end": "2026-06-03"}, {"slug": "ephemera-festival", "name": "Ephemera Festival", "city": "Warszawa", "genres": ["muzyka eksperymentalna", "muzyka elektroniczna", "ambient", "free jazz"], "lat": 52.2333742, "lon": 21.0711489, "precision": "city", "tier": "D", "date_start": "2026-06-08", "date_end": "2026-06-14"}, {"slug": "erste-letnie-brzmienia", "name": "Erste Letnie Brzmienia", "city": "Kraków, Warszawa, Gdańsk, Wrocław, Poznań", "genres": ["pop", "rock", "muzyka elektroniczna", "alternatywa"], "lat": 50.0469432, "lon": 19.9971534, "precision": "city", "tier": "C", "date_start": "2026-07-24", "date_end": "2026-09-05"}, {"slug": "ethniesy", "name": "Międzynarodowy Festiwal Muzyki Tradycyjnej i Ludowej Ethniesy", "city": "Bydgoszcz", "genres": ["muzyka tradycyjna", "muzyka ludowa", "muzyka źródeł"], "lat": 53.1297127, "lon": 18.0294488, "precision": "city", "tier": "D", "date_start": "2026-03-19", "date_end": "2026-03-22"}, {"slug": "ethno-jazz-festival", "name": "Ethno Jazz Festival", "city": "Wrocław", "genres": ["jazz", "muzyka etniczna", "world music"], "lat": 51.1263106, "lon": 16.9781963, "precision": "city", "tier": "D", "date_start": "2026-05-15", "date_end": "2026-11-11"}, {"slug": "ethno-polana-festiwal", "name": "Ethno Polana Festiwal", "city": "Krupy/Michów", "genres": ["ethno", "world music", "healing", "alternative"], "lat": 54.42417, "lon": 16.51481, "precision": "city", "tier": "E", "date_start": "2026-08-07", "date_end": "2026-08-09"}, {"slug": "ethno-port", "name": "Ethno Port", "city": "Poznań", "genres": ["world music", "etno", "muzyka tradycyjna"], "lat": 52.4006632, "lon": 16.9197326, "precision": "city", "tier": "C", "date_start": "2026-06-11", "date_end": "2026-06-14"}, {"slug": "etno-tuczno-festiwal", "name": "Etno Tuczno Festiwal", "city": "Tuczno", "genres": ["etno", "muzyka tradycyjna", "folk"], "lat": 53.194419, "lon": 16.1548235, "precision": "city", "tier": "D", "date_start": null, "date_end": null}, {"slug": "etnokrakow", "name": "EtnoKraków/Rozstaje", "city": "Kraków", "genres": ["muzyka etniczna", "muzyka tradycyjna", "world music"], "lat": 50.0469432, "lon": 19.9971534, "precision": "city", "tier": "D", "date_start": "2026-06-13", "date_end": "2026-06-28"}, {"slug": "euforia-festival", "name": "Euforia Festival", "city": "Boszkowo", "genres": ["elektronika", "house", "trance", "techno"], "lat": 51.9744738, "lon": 16.3283194, "precision": "city", "tier": "D", "date_start": "2026-08-21", "date_end": "2026-08-23"}, {"slug": "factory-of-sound", "name": "Factory of Sound Festival", "city": "Piła", "genres": ["elektroniczna", "hardstyle", "hardcore", "techno", "hardtechno"], "lat": 53.1511324, "lon": 16.7380343, "precision": "city", "tier": "D", "date_start": "2026-08-22", "date_end": "2026-08-22"}, {"slug": "fajer-festiwal", "name": "Fajer Festiwal", "city": "Chorzów", "genres": ["elektroniczna", "deep house", "drum and bass", "rave"], "lat": 50.2978791, "lon": 18.9544466, "precision": "city", "tier": "C", "date_start": "2026-08-28", "date_end": "2026-08-30"}, {"slug": "fajrant-punk-rock-fest", "name": "Fajrant – Punk Rock Fest", "city": "Olsztyn", "genres": ["punk rock", "hardcore punk"], "lat": 53.776644, "lon": 20.4777531, "precision": "city", "tier": "D", "date_start": "2026-02-21", "date_end": "2026-02-21"}, {"slug": "fale-loki-koki-dance-festival", "name": "Fale Loki Koki Dance Festival", "city": "Bydgoszcz", "genres": ["taniec nowoczesny", "balet współczesny", "hip hop", "akrobatyka"], "lat": 53.1297127, "lon": 18.0294488, "precision": "city", "tier": "D", "date_start": "2026-05-29", "date_end": "2026-05-31"}, {"slug": "festa-nuova-wrocaw", "name": "Festa Nuova", "city": "Wrocław", "genres": ["muzyka włoska", "pop"], "lat": 51.1263106, "lon": 16.9781963, "precision": "city", "tier": "E", "date_start": "2026-04-18", "date_end": "2026-04-18"}, {"slug": "festivaland", "name": "Festivaland", "city": "Warszawa", "genres": ["elektro", "techno"], "lat": 52.2333742, "lon": 21.0711489, "precision": "city", "tier": "D", "date_start": "2026-12-31", "date_end": "2026-12-31"}, {"slug": "festiwal-actus-humanus", "name": "Festiwal Actus Humanus Resurrectio", "city": "Gdańsk", "genres": ["muzyka dawna", "muzyka wokalna", "muzyka renesansu"], "lat": 54.3482907, "lon": 18.6540233, "precision": "city", "tier": "C", "date_start": "2026-04-01", "date_end": "2026-04-05"}, {"slug": "festiwal-bachowski", "name": "Festiwal Bachowski Świdnica", "city": "Świdnica", "genres": ["muzyka poważna", "muzyka baroku", "kantaty"], "lat": 50.8424835, "lon": 16.4870549, "precision": "city", "tier": "C", "date_start": "2026-06-25", "date_end": "2026-07-29"}, {"slug": "festiwal-barokowy-polskiej-opery-krolewskiej", "name": "IV Festiwal Barokowy Polskiej Opery Królewskiej - Muzyka Francuska", "city": "Warszawa", "genres": ["barok", "opera", "muzyka klasyczna"], "lat": 52.2333742, "lon": 21.0711489, "precision": "city", "tier": "D", "date_start": null, "date_end": null}, {"slug": "festiwal-beethovena-warszawa", "name": "Wielkanocny Festiwal Ludwiga van Beethovena", "city": "Warszawa", "genres": ["classical", "symphony"], "lat": 52.2333742, "lon": 21.0711489, "precision": "city", "tier": "E", "date_start": "2026-03-25", "date_end": "2026-03-29"}, {"slug": "festiwal-chopinowski", "name": "Międzynarodowy Festiwal Chopinowski w Dusznikach-Zdroju", "city": "Duszniki-Zdrój", "genres": ["muzyka klasyczna", "fortepian"], "lat": 50.4044249, "lon": 16.3901528, "precision": "city", "tier": "B", "date_start": "2026-08-07", "date_end": "2026-08-15"}, {"slug": "festiwal-ciszy", "name": "Festiwal Ciszy", "city": "Wrocław", "genres": ["muzyka experimentalna", "ambient", "sound art", "deep listening"], "lat": 51.1263106, "lon": 16.9781963, "precision": "city", "tier": "D", "date_start": "2026-05-29", "date_end": "2026-06-07"}, {"slug": "festiwal-country-mragowo", "name": "45. Międzynarodowy Piknik Country & Folk", "city": "Mrągowo", "genres": ["country", "folk"], "lat": 53.8685741, "lon": 21.3051587, "precision": "city", "tier": "D", "date_start": "2026-07-24", "date_end": "2026-07-25"}, {"slug": "festiwal-czeremcha", "name": "Ethno Festiwal Czeremcha (Festiwal Wielu Kultur i Narodów)", "city": "Czeremcha", "genres": ["folk", "etno", "muzyka tradycyjna", "world music"], "lat": 52.5141029, "lon": 23.3522319, "precision": "city", "tier": "D", "date_start": "2026-07-24", "date_end": "2026-07-26"}, {"slug": "festiwal-czyste-country", "name": "Festiwal Czyste Country", "city": "Wolsztyn", "genres": ["country", "country-rock", "Americana"], "lat": 52.11725, "lon": 16.1126622, "precision": "city", "tier": "D", "date_start": "2026-08-08", "date_end": "2026-08-10"}, {"slug": "festiwal-disco-dance", "name": "Festiwal Disco Dance", "city": "Olsztyn", "genres": ["disco polo", "disco", "dance", "pop"], "lat": 53.776644, "lon": 20.4777531, "precision": "city", "tier": "D", "date_start": "2026-07-11", "date_end": "2026-07-11"}, {"slug": "festiwal-disco-polo", "name": "Festiwal Disco Polo - Zamek Olsztyn Jurajski", "city": "Olsztyn", "genres": ["disco polo"], "lat": 53.776644, "lon": 20.4777531, "precision": "city", "tier": "D", "date_start": "2026-07-11", "date_end": "2026-07-11"}, {"slug": "festiwal-disco-swiebodzineiro", "name": "Disco Świebodzineiro", "city": "Świebodzin", "genres": ["Disco Polo"], "lat": 52.2498357, "lon": 15.5324973, "precision": "city", "tier": "E", "date_start": "2026-06-11", "date_end": "2026-06-11"}, {"slug": "festiwal-dub-nad-wda", "name": "Festiwal Dub nad Wdą", "city": "Wdzydze Kiszewskie", "genres": ["dub", "reggae", "drum and bass", "jungle"], "lat": 54.0124863, "lon": 17.9353739, "precision": "city", "tier": "C", "date_start": "2026-08-07", "date_end": "2026-08-08"}, {"slug": "festiwal-dziwnych-dzwiekow", "name": "Festiwal Dziwnych Dźwięków", "city": "Łódź", "genres": ["hardcore"], "lat": 51.7728245, "lon": 19.4784857, "precision": "city", "tier": "E", "date_start": "2026-06-19", "date_end": "2026-06-19"}, {"slug": "festiwal-etnobaltica", "name": "Festiwal Twórczości Ludowej EtnoBaltica", "city": "Swołowo", "genres": ["muzyka ludowa", "folklor", "tradycja ludowa"], "lat": 54.4775818, "lon": 16.8381065, "precision": "city", "tier": "D", "date_start": "2026-07-03", "date_end": "2026-07-05"}, {"slug": "festiwal-eufonie", "name": "Festiwal Eufonie – Międzynarodowy Festiwal Muzyki Europy Środkowo-Wschodniej", "city": "Warszawa (miasto główne organizacji, festiwal odbywa się w wielu miastach Polski)", "genres": ["muzyka klasyczna", "muzyka symfoniczna", "muzyka współczesna"], "lat": 52.2333742, "lon": 21.0711489, "precision": "city", "tier": "D", "date_start": "2026-11-12", "date_end": "2026-12-06"}, {"slug": "festiwal-folkowisko-ukiem-karpat", "name": "Festiwal Folkowisko: Łukiem Karpat", "city": "Gorajec", "genres": ["folk", "muzyka tradycyjna", "metal folk"], "lat": 50.2691522, "lon": 23.2050181, "precision": "city", "tier": "C", "date_start": "2026-07-09", "date_end": "2026-07-11"}, {"slug": "festiwal-globaltica", "name": "Globaltica - Festiwal Kultur Świata", "city": "Gdynia", "genres": ["world music", "international", "multicultural"], "lat": 54.5233304, "lon": 18.6040279, "precision": "city", "tier": "D", "date_start": "2026-07-17", "date_end": "2026-07-19"}, {"slug": "festiwal-goralove", "name": "Festiwal GóraLOVE", "city": "Ustroń", "genres": ["muzyka alternatywna", "folk", "reggae"], "lat": 49.7181505, "lon": 18.8028338, "precision": "city", "tier": "E", "date_start": "2026-05-22", "date_end": "2026-05-24"}, {"slug": "festiwal-gornej-odry", "name": "Festiwal Górnej Odry", "city": "Rybnik", "genres": ["różne gatunki muzyki"], "lat": 50.0955793, "lon": 18.5419933, "precision": "city", "tier": "D", "date_start": "2026-06-26", "date_end": "2026-06-28"}, {"slug": "festiwal-gospel-nad-warta", "name": "Festiwal Gospel Nad Wartą", "city": "Konin", "genres": ["gospel"], "lat": 52.2301933, "lon": 18.2521112, "precision": "city", "tier": "D", "date_start": "2026-04-17", "date_end": "2026-04-19"}, {"slug": "festiwal-indii", "name": "Festiwal Indii", "city": "Kołobrzeg", "genres": ["muzyka świata", "taniec indyjski", "taniec", "teatr", "sztuki walki", "joga"], "lat": 54.1760677, "lon": 15.5765542, "precision": "city", "tier": "D", "date_start": "2026-05-01", "date_end": "2026-05-31"}, {"slug": "festiwal-jana-borysewicza", "name": "Festiwal Jana Borysewicza", "city": "Ćmielów", "genres": ["rock", "gitarowy"], "lat": 50.8918364, "lon": 21.5100875, "precision": "city", "tier": "C", "date_start": "2026-07-25", "date_end": "2026-07-25"}, {"slug": "festiwal-jazz-jantar", "name": "Festiwal Jazz Jantar", "city": "Gdańsk", "genres": ["jazz"], "lat": 54.3482907, "lon": 18.6540233, "precision": "city", "tier": "C", "date_start": "2026-03-25", "date_end": "2026-03-29"}, {"slug": "festiwal-jazz-na-starowce", "name": "32. Międzynarodowy Plenerowy Festiwal Jazz na Starówce", "city": "Warszawa", "genres": ["jazz"], "lat": 52.2333742, "lon": 21.0711489, "precision": "city", "tier": "C", "date_start": "2026-07-04", "date_end": "2026-08-29"}, {"slug": "festiwal-jedwabno-mazury", "name": "Festiwal Jedwabno Mazury", "city": "Jedwabno", "genres": ["rock", "pop", "hip-hop", "muzyka klubowa"], "lat": 53.529796, "lon": 20.7268347, "precision": "city", "tier": "D", "date_start": "2026-07-04", "date_end": "2026-07-04"}, {"slug": "festiwal-kapel-i-spiewakow-ludowych", "name": "Ogólnopolski Festiwal Kapel i Śpiewaków Ludowych", "city": "Kazimierz Dolny", "genres": ["muzyka ludowa", "folklor"], "lat": 51.3220058, "lon": 21.947372, "precision": "city", "tier": "E", "date_start": "2026-06-25", "date_end": "2026-06-28"}, {"slug": "festiwal-kapel-i-spiewakow-ludowych-w-kazimierzu-dolny", "name": "60. Ogólnopolski Festiwal Kapel i Śpiewaków Ludowych w Kazimierzu Dolnym", "city": "Kazimierz Dolny", "genres": ["muzyka ludowa", "folklor"], "lat": 51.3220058, "lon": 21.947372, "precision": "city", "tier": "D", "date_start": "2026-06-25", "date_end": "2026-06-28"}, {"slug": "festiwal-kody", "name": "Festiwal Tradycji i Awangardy Muzycznej KODY", "city": "Lublin", "genres": ["muzyka dawna", "muzyka ludowa", "muzyka współczesna", "muzyka niezależna", "elektronika", "improwizacja"], "lat": 51.250559, "lon": 22.5701022, "precision": "city", "tier": "C", "date_start": "2026-05-27", "date_end": "2026-05-31"}, {"slug": "festiwal-kompozytorow-polskich", "name": "Festiwal Kompozytorów Polskich im. H.M. Góreckiego", "city": "Bielsku-Białej", "genres": ["muzyka poważna", "muzyka klasyczna", "kompozytorzy polscy"], "lat": 49.8216838, "lon": 19.0445406, "precision": "city", "tier": "D", "date_start": "2026-10-08", "date_end": "2026-10-10"}, {"slug": "festiwal-krolewskie", "name": "Festiwal Królewskie Śpiewanie", "city": "Tykocin, Ostróda, Gdańsk", "genres": ["muzyka poważna", "jazz", "pop", "różne gatunki"], "lat": 53.207646, "lon": 22.7730188, "precision": "city", "tier": "D", "date_start": "2026-07-23", "date_end": "2026-08-14"}, {"slug": "festiwal-kultura-wolnosci", "name": "Festiwal Kultura Wolności", "city": "Szczecin", "genres": ["sztuka multidyscyplinarna", "różne gatunki artystyczne"], "lat": 53.4298114, "lon": 14.5928676, "precision": "city", "tier": "E", "date_start": "2026-01-29", "date_end": "2026-01-31"}, {"slug": "festiwal-kultury-alternatywnej-e-fka", "name": "Festiwal Kultury Alternatywnej e/FKA", "city": "Częstochowa", "genres": ["kultura alternatywna", "muzyka", "sztuka", "poetry slam"], "lat": 50.8089997, "lon": 19.1244089, "precision": "city", "tier": "C", "date_start": "2026-08-22", "date_end": "2026-08-23"}, {"slug": "festiwal-kultury-kresowej-mragowo", "name": "Festiwal Kultury Kresowej Mrągowo", "city": "Mrągowo", "genres": ["muzyka ludowa", "tradycyjna", "taniec", "śpiew"], "lat": 53.8685741, "lon": 21.3051587, "precision": "city", "tier": "C", "date_start": "2026-08-06", "date_end": "2026-08-09"}, {"slug": "festiwal-kultury-lasowiackiej", "name": "Festiwal Kultury Lasowiackiej", "city": "Województwo Podkarpackie (wielolokacyjny)", "genres": ["kultura ludowa", "muzyka tradycyjna", "rzemiosło", "etnografia"], "lat": 49.9927121, "lon": 22.177107, "precision": "city", "tier": "D", "date_start": "2026-05-16", "date_end": "2026-07-28"}, {"slug": "festiwal-labirynt", "name": "Labirynt Festiwal - START New Level", "city": "Łódź", "genres": ["elektronika", "techno", "house", "ambient", "reggae"], "lat": 51.7728245, "lon": 19.4784857, "precision": "city", "tier": "C", "date_start": "2026-06-03", "date_end": "2026-06-03"}, {"slug": "festiwal-mocnych-brzmien", "name": "Festiwal Mocnych Brzmień im. Ryśka Bieńka", "city": "Świecie", "genres": ["rock", "metal"], "lat": 53.4072518, "lon": 18.4455253, "precision": "city", "tier": "E", "date_start": "2026-06-13", "date_end": "2026-06-13"}, {"slug": "festiwal-mozartowski", "name": "Festiwal Mozartowski", "city": "Warszawa", "genres": ["muzyka klasyczna", "opera", "koncerty kameralne", "oratoryjne"], "lat": 52.2333742, "lon": 21.0711489, "precision": "city", "tier": "D", "date_start": "2026-05-07", "date_end": "2026-07-05"}, {"slug": "festiwal-muzyczny-canzonada", "name": "Festiwal Muzyczny Canzonada", "city": "Płock", "genres": ["muzyka klasyczna", "barok", "muzyka kameralna"], "lat": 52.5464521, "lon": 19.7008606, "precision": "city", "tier": "D", "date_start": "2026-05-31", "date_end": "2026-06-30"}, {"slug": "festiwal-muzyczny-duetomania", "name": "Festiwal Muzyczny Duetomania", "city": "Poznań", "genres": ["muzyka duetowa", "muzyka kameralna"], "lat": 52.4006632, "lon": 16.9197326, "precision": "city", "tier": "D", "date_start": "2026-06-16", "date_end": "2026-06-21"}, {"slug": "festiwal-muzyczny-katedra", "name": "II Festiwal Muzyczny - Katedra 2026", "city": "Gorzów Wielkopolski", "genres": ["muzyka klasyczna", "muzyka barokowa"], "lat": 52.7305756, "lon": 15.2107553, "precision": "city", "tier": "E", "date_start": "2026-04-19", "date_end": "2026-06-30"}, {"slug": "festiwal-muzyczny-w-ancucie", "name": "Muzyczny Festiwal w Łańcucie", "city": "Łańcut", "genres": ["muzyka klasyczna", "muzyka poważna"], "lat": 50.0690725, "lon": 22.2320924, "precision": "city", "tier": "B", "date_start": "2026-05-21", "date_end": "2026-06-11"}, {"slug": "festiwal-muzyka-swiata-warszawa", "name": "Festiwal Muzyka Świata – Warszawa", "city": "Warszawa", "genres": ["world music", "etno", "muzyka świata"], "lat": 52.2333742, "lon": 21.0711489, "precision": "city", "tier": "E", "date_start": "2026-06-28", "date_end": "2026-06-30"}, {"slug": "festiwal-muzyki-alpejskiej", "name": "Festiwal Muzyki Alpejskiej", "city": "Zawadzkie, Łaziska Górne, Radzionków", "genres": ["muzyka alpejska", "folk"], "lat": 50.6065834, "lon": 18.4801284, "precision": "city", "tier": "D", "date_start": "2026-04-17", "date_end": "2026-04-19"}, {"slug": "festiwal-muzyki-choralnej-im-feliksa-nowowiejskiego", "name": "XXV Międzynarodowy Festiwal Muzyki Chóralnej im. Feliksa Nowowiejskiego", "city": "Barczewo", "genres": ["muzyka chóralna"], "lat": 53.8297112, "lon": 20.6911497, "precision": "city", "tier": "D", "date_start": "2026-05-28", "date_end": "2026-05-30"}, {"slug": "festiwal-muzyki-dawnej-imienia-mikoaja-z-radomia", "name": "Międzynarodowy Festiwal Muzyki Dawnej imienia Mikołaja z Radomia", "city": "Radom", "genres": ["muzyka dawna", "polifonia średniowieczna", "barok", "dramma per musica"], "lat": 51.4022557, "lon": 21.1541546, "precision": "city", "tier": "D", "date_start": null, "date_end": null}, {"slug": "festiwal-muzyki-dawnej-w-jarosawiu", "name": "Festiwal Muzyki Dawnej w Jarosławiu", "city": "Jarosław", "genres": ["muzyka dawna", "barok", "muzyka historyczna"], "lat": 50.0159029, "lon": 22.6796573, "precision": "city", "tier": "C", "date_start": "2026-08-16", "date_end": "2026-08-23"}, {"slug": "festiwal-muzyki-disco", "name": "Hype Disco Festiwal", "city": "Szczecin", "genres": ["disco polo", "disco"], "lat": 53.4298114, "lon": 14.5928676, "precision": "city", "tier": "E", "date_start": "2026-12-12", "date_end": "2026-12-12"}, {"slug": "festiwal-muzyki-disco-lublin", "name": "Hype Disco Festiwal - Festiwal Muzyki Disco Lublin", "city": "Lublin", "genres": ["disco polo", "disco"], "lat": 51.250559, "lon": 22.5701022, "precision": "city", "tier": "E", "date_start": "2026-12-19", "date_end": "2026-12-19"}, {"slug": "festiwal-muzyki-filmowej", "name": "Festiwal Muzyki Filmowej", "city": "Kraków", "genres": ["muzyka filmowa", "muzyka klasyczna", "jazz"], "lat": 50.0469432, "lon": 19.9971534, "precision": "city", "tier": "C", "date_start": "2026-05-13", "date_end": "2026-05-17"}, {"slug": "festiwal-muzyki-filmowej-w-krakowie", "name": "Festiwal Muzyki Filmowej w Krakowie", "city": "Kraków", "genres": ["muzyka filmowa"], "lat": 50.0469432, "lon": 19.9971534, "precision": "city", "tier": "D", "date_start": "2026-05-13", "date_end": "2026-05-17"}, {"slug": "festiwal-muzyki-folkowej-polskiego-radia-nowa", "name": "Festiwal Muzyki Folkowej Polskiego Radia \"Nowa Tradycja\"", "city": "Warszawa", "genres": ["folk", "muzyka ludowa", "world music", "etno"], "lat": 52.2333742, "lon": 21.0711489, "precision": "city", "tier": "C", "date_start": "2026-05-18", "date_end": null}, {"slug": "festiwal-muzyki-fortepianowej-im-marii-turzanskiej", "name": "Festiwal Muzyki Fortepianowej im. Marii Turzańskiej", "city": "Jarosław", "genres": ["muzyka poważna", "fortepian"], "lat": 50.0159029, "lon": 22.6796573, "precision": "city", "tier": "D", "date_start": "2026-02-28", "date_end": "2026-03-07"}, {"slug": "festiwal-muzyki-jednogosowej", "name": "Festiwal Muzyki Jednogłosowej", "city": "Płock", "genres": ["muzyka dawna", "muzyka chrześcijańska", "śpiew gregoriański"], "lat": 52.5464521, "lon": 19.7008606, "precision": "city", "tier": "E", "date_start": "2026-03-20", "date_end": "2026-03-22"}, {"slug": "festiwal-muzyki-kameralnej-i-organowej-convallaria", "name": "Festiwal Muzyki Kameralnej i Organowej - Convallaria", "city": "Ośno Lubuskie", "genres": ["muzyka kameralna", "muzyka organowa"], "lat": 52.455132, "lon": 14.8682003, "precision": "city", "tier": "D", "date_start": "2026-04-01", "date_end": "2026-09-30"}, {"slug": "festiwal-muzyki-kameralnej-wieczory-w-arsenale-im-jana-staniendy", "name": "Festiwal Muzyki Kameralnej Wieczory w Arsenale im. Jana Staniendy", "city": "Wrocław", "genres": ["muzyka klasyczna", "muzyka kameralna"], "lat": 51.1263106, "lon": 16.9781963, "precision": "city", "tier": "C", "date_start": "2026-06-26", "date_end": "2026-07-05"}, {"slug": "festiwal-muzyki-ludowej-w-kazimierzu-dolnym", "name": "Festiwal Muzyki Ludowej w Kazimierzu Dolnym", "city": "Kazimierz Dolny", "genres": ["muzyka ludowa", "folklor", "muzyka tradycyjna"], "lat": 51.3220058, "lon": 21.947372, "precision": "city", "tier": "D", "date_start": "2026-06-25", "date_end": "2026-06-28"}, {"slug": "festiwal-muzyki-organowej-i-kameralnej", "name": "VII Międzynarodowy Festiwal Muzyki Organowej i Kameralnej w Sanoku", "city": "Sanok", "genres": ["muzyka organowa", "muzyka kameralna", "muzyka sakralna", "muzyka eksperymentalna"], "lat": 49.5609053, "lon": 22.207028, "precision": "city", "tier": "C", "date_start": "2026-05-22", "date_end": "2026-05-27"}, {"slug": "festiwal-muzyki-organowej-i-kameralnej-im-johannesa-brahmsa", "name": "Festiwal Muzyki Organowej i Kameralnej im. Johannesa Brahmsa Non Sola Scripta", "city": "Wrocław", "genres": ["muzyka organowa", "muzyka kameralna", "improwizacja"], "lat": 51.1149522, "lon": 17.0441464, "precision": "venue", "tier": "D", "date_start": "2026-07-05", "date_end": "2026-08-31"}, {"slug": "festiwal-muzyki-organowej-w-kamieniu-pomorskim", "name": "Międzynarodowy Festiwal Muzyki Organowej i Kameralnej w Kamieniu Pomorskim", "city": "Kamień Pomorski", "genres": ["muzyka organowa", "muzyka kameralna", "muzyka klasyczna"], "lat": 53.9653947, "lon": 14.7728556, "precision": "city", "tier": "E", "date_start": "2026-06-19", "date_end": "2026-08-28"}, {"slug": "festiwal-muzyki-polskiej", "name": "Festiwal Muzyki Polskiej", "city": "Kraków", "genres": ["muzyka klasyczna", "muzyka polska", "kameralistyka"], "lat": 50.0469432, "lon": 19.9971534, "precision": "city", "tier": "C", "date_start": "2026-07-17", "date_end": "2026-08-02"}, {"slug": "festiwal-muzyki-romantycznej", "name": "Festiwal Muzyki Romantycznej", "city": "Skierniewice", "genres": ["muzyka romantyczna", "muzyka klasyczna"], "lat": 51.9568581, "lon": 20.1430044, "precision": "city", "tier": "C", "date_start": null, "date_end": null}, {"slug": "festiwal-muzyki-swiata-ogrody-dzwiekow", "name": "Festiwal Muzyki Świata Ogrody Dźwięków", "city": "Katowice", "genres": ["world music", "etno", "folk"], "lat": 50.2598987, "lon": 19.0215852, "precision": "city", "tier": "D", "date_start": "2026-06-26", "date_end": "2026-06-27"}, {"slug": "festiwal-muzyki-tradycyjnej-rozstaje", "name": "Festiwal Muzyki Tradycyjnej Rozstaje", "city": "Kraków", "genres": ["muzyka tradycyjna", "world music", "folk", "muzyka ludowa"], "lat": 50.0469432, "lon": 19.9971534, "precision": "city", "tier": "D", "date_start": "2026-06-16", "date_end": "2026-06-28"}, {"slug": "festiwal-muzyki-w-raju", "name": "Festiwal Muzyki w Raju", "city": "Gorzów Wielkopolski", "genres": ["muzyka klasyczna"], "lat": 52.7305756, "lon": 15.2107553, "precision": "city", "tier": "D", "date_start": "2026-08-05", "date_end": "2026-08-22"}, {"slug": "festiwal-muzyki-zabytkowych-parkow-i-ogrodow", "name": "Festiwal Muzyki Zabytkowych Parków i Ogrodów im. Carla Marii von Webera", "city": "Pokój", "genres": ["muzyka poważna", "muzyka klasyczna"], "lat": 50.9017945, "lon": 17.8369082, "precision": "city", "tier": "D", "date_start": "2026-06-06", "date_end": "2026-06-19"}, {"slug": "festiwal-na-gotyckim-szlaku-w-polsce-zachodniej", "name": "Festiwal Na Gotyckim Szlaku w Polsce Zachodniej", "city": "Poznań", "genres": ["muzyka dawna", "renesans", "barok", "średniowiecze"], "lat": 52.4006632, "lon": 16.9197326, "precision": "city", "tier": "D", "date_start": "2026-05-15", "date_end": "2026-05-24"}, {"slug": "festiwal-nada", "name": "Festiwal NADA", "city": "Toruń", "genres": ["różne", "alternatywa", "polskie gwiazdy"], "lat": 53.0102721, "lon": 18.6048094, "precision": "city", "tier": "E", "date_start": "2026-09-04", "date_end": "2026-09-05"}, {"slug": "festiwal-ogrody-muzyczne", "name": "26. Festiwal Ogrody Muzyczne", "city": "Warszawa", "genres": ["muzyka klasyczna", "opera", "film", "taniec", "multimedia"], "lat": 52.2333742, "lon": 21.0711489, "precision": "city", "tier": "C", "date_start": "2026-07-06", "date_end": "2026-08-08"}, {"slug": "festiwal-parzybroda", "name": "Festiwal Parzybroda", "city": "Aleksandrów Kujawski / Ciechocinek / Białe Błota", "genres": ["rock", "muzyka alternatywna", "kultura"], "lat": 52.8764647, "lon": 18.694071, "precision": "city", "tier": "E", "date_start": "2026-08-26", "date_end": "2026-08-27"}, {"slug": "festiwal-pianistow-jazzowych", "name": "Międzynarodowy Festiwal Pianistów Jazzowych", "city": "Kalisz", "genres": ["jazz"], "lat": 51.7472867, "lon": 18.079532, "precision": "city", "tier": "D", "date_start": null, "date_end": null}, {"slug": "festiwal-piesni-zbuntowanej", "name": "Festiwal Pieśni Zbuntowanej", "city": "Doły Biskupie (Gmina Kunów)", "genres": ["punk rock", "rock", "muzyka niezależna"], "lat": 50.9705671, "lon": 21.211398, "precision": "city", "tier": "D", "date_start": "2026-07-10", "date_end": "2026-07-12"}, {"slug": "festiwal-piosenki-filmowej-bydgoszcz", "name": "Festiwal Piosenki Filmowej Bydgoszcz", "city": "Bydgoszcz", "genres": ["piosenka filmowa", "muzyka z filmów", "muzyka z seriali"], "lat": 53.1297127, "lon": 18.0294488, "precision": "city", "tier": "D", "date_start": "2026-01-06", "date_end": "2026-01-11"}, {"slug": "festiwal-piosenki-ludowej-podgorskie-gosy", "name": "Podgórskie Głosy – I Festiwal Piosenki Ludowej", "city": "Gryfów", "genres": ["piosenka ludowa", "folklor"], "lat": 51.0281455, "lon": 15.4145051, "precision": "city", "tier": "D", "date_start": "2026-06-27", "date_end": "2026-06-27"}, {"slug": "festiwal-piosenki-polskiej-dziadowo", "name": "Festiwal Piosenki Polskiej Działdowo", "city": "Działdowo", "genres": ["polska muzyka popularna", "piosenka polska"], "lat": 53.2406366, "lon": 20.1846865, "precision": "city", "tier": "D", "date_start": "2026-06-26", "date_end": "2026-06-26"}, {"slug": "festiwal-polskiej-opery-krolewskiej", "name": "IX Letni Festiwal Polskiej Opery Królewskiej", "city": "Warszawa", "genres": ["opera", "muzyka klasyczna"], "lat": 52.2333742, "lon": 21.0711489, "precision": "city", "tier": "C", "date_start": "2026-06-19", "date_end": "2026-06-19"}, {"slug": "festiwal-prawykonan", "name": "Festiwal Prawykonań – Polska Muzyka Najnowsza", "city": "Katowice", "genres": ["muzyka współczesna", "polska muzyka najnowsza", "muzyka klasyczna"], "lat": 50.2598987, "lon": 19.0215852, "precision": "city", "tier": "D", "date_start": "2026-03-09", "date_end": "2026-03-16"}, {"slug": "festiwal-punk-generation", "name": "Punk Generation", "city": "Gliwice", "genres": ["punk rock"], "lat": 50.3011315, "lon": 18.6623472, "precision": "city", "tier": "D", "date_start": "2026-10-17", "date_end": "2026-10-17"}, {"slug": "festiwal-punk-i-vege", "name": "Festiwal Punk i Vege", "city": "Bydgoszcz", "genres": ["punk"], "lat": 53.1297127, "lon": 18.0294488, "precision": "city", "tier": "D", "date_start": null, "date_end": null}, {"slug": "festiwal-re-tradycja-jarmark-jagiellonski", "name": "Festiwal Re:tradycja – Jarmark Jagielloński", "city": "Lublin", "genres": ["muzyka tradycyjna", "folk", "tańce ludowe", "rzemiosło", "kultura ludowa"], "lat": 51.250559, "lon": 22.5701022, "precision": "city", "tier": "D", "date_start": "2026-08-21", "date_end": "2026-08-23"}, {"slug": "festiwal-reggae-na-piaskach", "name": "Festiwal Reggae na Piaskach", "city": "Ostrów Wielkopolski", "genres": ["reggae", "roots rock reggae"], "lat": 51.6471864, "lon": 17.8037607, "precision": "city", "tier": "D", "date_start": "2026-07-10", "date_end": "2026-07-11"}, {"slug": "festiwal-reggae-w-stodole", "name": "Festiwal Reggae w Stodole", "city": "Kobiór", "genres": ["reggae"], "lat": 50.0607873, "lon": 18.9339311, "precision": "city", "tier": "D", "date_start": "2026-06-13", "date_end": "2026-06-13"}, {"slug": "festiwal-rocka-progresywnego-im-tomasza-beksinskiego", "name": "Festiwal Rocka Progresywnego im. Tomasza Beksińskiego", "city": "Toruń", "genres": ["rock progresywny"], "lat": 53.0102721, "lon": 18.6048094, "precision": "city", "tier": "D", "date_start": "2026-06-28", "date_end": "2026-06-29"}, {"slug": "festiwal-skowroneczek", "name": "XXIII Międzynarodowy Festiwal Piosenki Dziecięcej Skowroneczek", "city": "Nowy Sącz", "genres": ["muzyka dziecięca", "piosenka"], "lat": 49.610304, "lon": 20.7149366, "precision": "city", "tier": "D", "date_start": "2026-06-23", "date_end": "2026-06-28"}, {"slug": "festiwal-sowo-i-muzyka-u-jezuitow", "name": "Międzynarodowy Festiwal Muzyczny Słowo i Muzyka u Jezuitów", "city": "Łódź", "genres": ["muzyka klasyczna", "muzyka organowa", "różne gatunki"], "lat": 51.7728245, "lon": 19.4784857, "precision": "city", "tier": "D", "date_start": null, "date_end": null}, {"slug": "festiwal-sploty", "name": "Festiwal Sploty", "city": "Toruń, Bydgoszcz", "genres": ["muzyka celtycka", "folk"], "lat": 53.0102721, "lon": 18.6048094, "precision": "city", "tier": "D", "date_start": null, "date_end": null}, {"slug": "festiwal-szanty-we-wrocawiu", "name": "Festiwal SZANTY WE WROCŁAWIU", "city": "Wrocław", "genres": ["szanty", "piosenka żeglarska", "folk"], "lat": 51.1263106, "lon": 16.9781963, "precision": "city", "tier": "D", "date_start": "2026-02-26", "date_end": "2026-03-01"}, {"slug": "festiwal-tradycji-pomorza-zachodniego", "name": "Festiwal Tradycji Pomorza Zachodniego", "city": "Przelewice", "genres": ["muzyka folkloru", "kultura ludowa", "muzyka regionalna"], "lat": 53.1044046, "lon": 15.0763688, "precision": "city", "tier": "D", "date_start": "2026-05-16", "date_end": "2026-05-17"}, {"slug": "festiwal-uroczysko", "name": "Festiwal Uroczysko", "city": "Pastewnik", "genres": ["muzyka", "sztuka", "natura"], "lat": 50.885378, "lon": 16.0311293, "precision": "city", "tier": "C", "date_start": "2026-08-06", "date_end": "2026-08-09"}, {"slug": "festiwal-urwanych-filmow", "name": "Festiwal Urwanych Filmów", "city": "Rowy", "genres": ["punk", "Oi", "ska", "hardcore"], "lat": 54.6648301, "lon": 17.0518773, "precision": "city", "tier": "C", "date_start": "2026-07-17", "date_end": "2026-07-18"}, {"slug": "festiwal-wibracje", "name": "Festiwal Wibracje", "city": "Plock", "genres": ["elektronika", "downtempo", "world music", "afrogroove", "taniec ekstatyczny"], "lat": 52.5353471, "lon": 19.7136301, "precision": "city", "tier": "C", "date_start": "2026-07-22", "date_end": "2026-07-26"}, {"slug": "festiwal-wiosna-gospel", "name": "IV Międzynarodowy Festiwal Gospel", "city": "Bielsko-Biała", "genres": ["gospel"], "lat": 49.8120785, "lon": 19.0291988, "precision": "city", "tier": "D", "date_start": "2026-05-11", "date_end": "2026-05-17"}, {"slug": "festiwal-wisoujscie", "name": "Festiwal Wisłoujście", "city": "Gdańsk", "genres": ["muzyka elektroniczna"], "lat": 54.3482907, "lon": 18.6540233, "precision": "city", "tier": "C", "date_start": "2026-08-21", "date_end": "2026-08-23"}, {"slug": "festiwal-wodecki-twist", "name": "Festiwal Wodecki Twist", "city": "Kraków", "genres": ["jazz", "swing", "piosenka"], "lat": 50.0469432, "lon": 19.9971534, "precision": "city", "tier": "C", "date_start": "2026-06-10", "date_end": "2026-06-14"}, {"slug": "festiwal-wschod-kultury", "name": "Festiwal Wschód Kultury", "city": "Lublin, Rzeszów, Białystok", "genres": ["muzyka", "film", "teatr", "sztuki plastyczne", "taniec", "fotografia", "literatura"], "lat": 51.250559, "lon": 22.5701022, "precision": "city", "tier": "C", "date_start": "2026-07-02", "date_end": "2026-07-05"}, {"slug": "festiwal-wschod-kultury-inne-brzmienia", "name": "Festiwal Wschód Kultury – Inne Brzmienia", "city": "Lublin", "genres": ["muzyka nieoczywista", "muzyka niezależna", "różne gatunki"], "lat": 51.250559, "lon": 22.5701022, "precision": "city", "tier": "C", "date_start": "2026-07-02", "date_end": "2026-07-05"}, {"slug": "festiwal-wszystkie-mazurki-swiata", "name": "Festiwal Wszystkie Mazurki Świata", "city": "Warszawa", "genres": ["muzyka tradycyjna", "taniec", "śpiew"], "lat": 52.2333742, "lon": 21.0711489, "precision": "city", "tier": "C", "date_start": "2026-04-21", "date_end": "2026-04-24"}, {"slug": "festiwal-wykopaliska", "name": "Festiwal Wykopaliska Rekowo", "city": "Rekowo", "genres": ["metal", "ciężka muzyka"], "lat": 54.1140085, "lon": 16.5040925, "precision": "city", "tier": "E", "date_start": null, "date_end": null}, {"slug": "festiwal-zaczarowanej-piosenki", "name": "Festiwal Zaczarowanej Piosenki", "city": "Kraków", "genres": ["muzyka", "śpiew"], "lat": 50.0469432, "lon": 19.9971534, "precision": "city", "tier": "C", "date_start": "2026-05-09", "date_end": "2026-05-09"}, {"slug": "festiwal-zakochani-w-gorach", "name": "Festiwal Zakochani w Górach", "city": "Wetlina", "genres": ["muzyka autorska", "piosenka śpiewana", "piosenka turystyczna", "folk", "rock", "szanty"], "lat": 49.1551784, "lon": 22.4690026, "precision": "city", "tier": "E", "date_start": "2026-06-03", "date_end": "2026-06-07"}, {"slug": "festiwal-zorza", "name": "ZORZA", "city": "Chorzów, Poznań, Gdańsk, Warszawa", "genres": ["pop", "muzyka autorska"], "lat": 50.2978791, "lon": 18.9544466, "precision": "city", "tier": "D", "date_start": "2026-08-08", "date_end": "2026-08-08"}, {"slug": "film-song-festival-bydgoszcz", "name": "Film Song Festival Bydgoszcz", "city": "Bydgoszcz", "genres": ["piosenka filmowa", "muzyka"], "lat": 53.1297127, "lon": 18.0294488, "precision": "city", "tier": "D", "date_start": "2026-01-06", "date_end": "2026-01-11"}, {"slug": "flader-festiwal", "name": "Fląder Festiwal", "city": "Gdańsk", "genres": ["rock", "metal", "polskie zespoły"], "lat": 54.3482907, "lon": 18.6540233, "precision": "city", "tier": "D", "date_start": "2026-06-12", "date_end": "2026-06-13"}, {"slug": "flader-pop-festiwal", "name": "Fląder Pop Festiwal", "city": "Gdańsk", "genres": ["pop", "alternatywny", "elektronika", "reggae"], "lat": 54.3482907, "lon": 18.6540233, "precision": "city", "tier": "D", "date_start": "2026-06-12", "date_end": "2026-06-13"}, {"slug": "fly-with-us-festival", "name": "Fly With Us Festival 2026 \"New Chapter\"", "city": "Strzeleczki", "genres": ["electronic", "muzyka elektroniczna"], "lat": 50.4594894, "lon": 17.854778, "precision": "city", "tier": "C", "date_start": "2026-06-26", "date_end": "2026-06-27"}, {"slug": "fonomo-music-film-festival", "name": "Fonomo Music & Film Festival", "city": "Bydgoszcz", "genres": ["muzyka", "film", "sztuki wizualne"], "lat": 53.1297127, "lon": 18.0294488, "precision": "city", "tier": "D", "date_start": "2026-10-15", "date_end": "2026-10-18"}, {"slug": "frozen-hardcore-fest", "name": "Frozen Hardcore Fest", "city": "Warszawa", "genres": ["hardcore", "metal"], "lat": 52.2333742, "lon": 21.0711489, "precision": "city", "tier": "E", "date_start": "2026-01-16", "date_end": "2026-01-17"}, {"slug": "fryderyk-festiwal", "name": "Fryderyk Festiwal 2026", "city": "Wrocław", "genres": ["muzyka klasyczna", "muzyka rozrywkowa", "jazz"], "lat": 51.1263106, "lon": 16.9781963, "precision": "city", "tier": "D", "date_start": "2026-01-20", "date_end": "2026-05-25"}, {"slug": "fuck-off-festival", "name": "Fuck Off Festival", "city": "Gdańsk, Warszawa", "genres": ["rock", "punk"], "lat": 54.3482907, "lon": 18.6540233, "precision": "city", "tier": "C", "date_start": "2026-11-07", "date_end": "2026-11-07"}, {"slug": "fuma", "name": "XVIII Ogólnopolski Festiwal Piosenki Dziecięcej i Młodzieżowej FUMA", "city": "Zielona Góra", "genres": ["piosenka", "muzyka dziecięca", "muzyka młodzieżowa"], "lat": 51.9275737, "lon": 15.5490421, "precision": "city", "tier": "C", "date_start": "2026-10-22", "date_end": "2026-10-24"}, {"slug": "futurofonia", "name": "FUTUROFONIA FESTIVAL", "city": "Gdańsk", "genres": ["muzyka eksperymentalna", "głos", "dźwięk", "performance", "interdyscyplinarne"], "lat": 54.3482907, "lon": 18.6540233, "precision": "city", "tier": "D", "date_start": "2026-09-05", "date_end": "2026-09-06"}, {"slug": "gala-disco-polo", "name": "Kielecka Gala Disco Polo 2026", "city": "Kielce", "genres": ["disco polo"], "lat": 50.8719903, "lon": 20.6310488, "precision": "city", "tier": "C", "date_start": "2026-07-11", "date_end": "2026-07-11"}, {"slug": "game-music-fest", "name": "Game Music Fest", "city": "Katowice", "genres": ["muzyka z gier komputerowych", "muzyka poważna", "elektronika"], "lat": 50.2598987, "lon": 19.0215852, "precision": "city", "tier": "D", "date_start": "2026-04-09", "date_end": "2026-04-12"}, {"slug": "gdansk-jazz-festival", "name": "Gdańsk Jazz Festival", "city": "Gdańsk", "genres": ["jazz"], "lat": 54.3482907, "lon": 18.6540233, "precision": "city", "tier": "D", "date_start": "2026-03-25", "date_end": "2026-03-29"}, {"slug": "gdansk-ska-jamboree", "name": "Gdańsk Ska Jamboree", "city": "Gdańsk", "genres": ["ska", "reggae", "rocksteady", "punk", "folk"], "lat": 54.3482907, "lon": 18.6540233, "precision": "city", "tier": "E", "date_start": "2026-10-17", "date_end": "2026-10-17"}, {"slug": "gdanski-festiwal-muzyczny", "name": "Gdański Festiwal Muzyczny", "city": "Gdańsk", "genres": ["muzyka klasyczna", "jazz", "muzyka organowa"], "lat": 54.3482907, "lon": 18.6540233, "precision": "city", "tier": "C", "date_start": "2026-05-07", "date_end": "2026-05-16"}, {"slug": "get-up-reggae-dub-festival", "name": "GET UP! REGGAE DUB FESTIVAL vol. 8", "city": "Bydgoszcz", "genres": ["reggae", "dub"], "lat": 53.1297127, "lon": 18.0294488, "precision": "city", "tier": "D", "date_start": null, "date_end": null}, {"slug": "gniazdo", "name": "Gniazdo Festiwal 2026", "city": "Krzykawka", "genres": ["electronic", "arts"], "lat": 50.3126147, "lon": 19.4115834, "precision": "city", "tier": "E", "date_start": "2026-07-31", "date_end": "2026-08-02"}, {"slug": "gotango-poznan-festival", "name": "Gotango Poznań Festival", "city": "Poznań", "genres": ["tango"], "lat": 52.4006632, "lon": 16.9197326, "precision": "city", "tier": "C", "date_start": "2026-08-28", "date_end": "2026-08-30"}, {"slug": "green-festival", "name": "Olsztyn Green Festival", "city": "Olsztyn", "genres": ["alternatywna", "pop", "elektroniczna", "hip-hop"], "lat": 53.776644, "lon": 20.4777531, "precision": "city", "tier": "E", "date_start": "2026-08-14", "date_end": "2026-08-16"}, {"slug": "green-zoo-festival", "name": "Green ZOO Festival", "city": "Kraków", "genres": ["alternatywa", "indie rock", "gitarowa alternatywa"], "lat": 50.0469432, "lon": 19.9971534, "precision": "city", "tier": "C", "date_start": "2026-05-01", "date_end": "2026-05-29"}, {"slug": "grind-the-granary-fest", "name": "GRIND THE GRANARY FEST 2026", "city": "Ełk", "genres": ["grindcore", "metal"], "lat": 53.8248304, "lon": 22.3615813, "precision": "city", "tier": "D", "date_start": "2026-03-07", "date_end": "2026-03-07"}, {"slug": "hangar-festival", "name": "Hangar Festival", "city": "Bielsko-Biała", "genres": ["elektroniczna"], "lat": 49.8120785, "lon": 19.0291988, "precision": "city", "tier": "C", "date_start": "2026-08-29", "date_end": "2026-08-29"}, {"slug": "helicon-metal-festival", "name": "Helicon Metal Festival VI", "city": "Warszawa", "genres": ["heavy metal", "power metal", "speed metal", "thrash metal"], "lat": 52.2333742, "lon": 21.0711489, "precision": "city", "tier": "E", "date_start": "2026-03-20", "date_end": "2026-03-21"}, {"slug": "helicon-metal-festiwal", "name": "Helicon Metal Festiwal", "city": "Warszawa", "genres": ["heavy metal", "speed metal", "thrash metal", "doom metal"], "lat": 52.2333742, "lon": 21.0711489, "precision": "city", "tier": "D", "date_start": "2026-03-20", "date_end": "2026-03-21"}, {"slug": "hells-bells-festival", "name": "Hells Bells Festival", "city": "Szczecin", "genres": ["metal", "punk rock", "hardcore"], "lat": 53.4298114, "lon": 14.5928676, "precision": "city", "tier": "D", "date_start": "2026-06-26", "date_end": "2026-06-27"}, {"slug": "hey-ho-ramona", "name": "Hey Ho Ramona", "city": "Trzciel", "genres": ["rock", "punk"], "lat": 52.365166, "lon": 15.873213, "precision": "city", "tier": "E", "date_start": "2026-07-25", "date_end": "2026-07-26"}, {"slug": "hiatus-festival", "name": "Hiatus Festival", "city": "Poznań", "genres": ["elektroniczna", "elektroakustyczna", "improwizowana", "awangardowa"], "lat": 52.4006632, "lon": 16.9197326, "precision": "city", "tier": "E", "date_start": null, "date_end": null}, {"slug": "hip-hop-park-festiwal", "name": "HIP-HOP Park Festiwal", "city": "Zwierzyniec", "genres": ["hip-hop", "rap"], "lat": 50.6145878, "lon": 22.9706317, "precision": "city", "tier": "C", "date_start": "2026-07-11", "date_end": "2026-07-11"}, {"slug": "hip-hop-poznan-festiwal", "name": "Hip-Hop Poznań Festiwal", "city": "Poznań", "genres": ["hip-hop", "taniec", "graffiti"], "lat": 52.4006632, "lon": 16.9197326, "precision": "city", "tier": "E", "date_start": null, "date_end": null}, {"slug": "hip-hop-raport", "name": "Hip Hop Raport Projekt", "city": "Ełk", "genres": ["hip-hop", "rap"], "lat": 53.8248304, "lon": 22.3615813, "precision": "city", "tier": "E", "date_start": "2026-06-28", "date_end": "2026-07-05"}, {"slug": "hot-jazz-spring", "name": "Hot Jazz Spring", "city": "Częstochowa", "genres": ["jazz tradycyjny", "jazz"], "lat": 50.8089997, "lon": 19.1244089, "precision": "city", "tier": "D", "date_start": "2026-06-20", "date_end": "2026-06-20"}, {"slug": "hype-disco-80-festiwal", "name": "Hype Disco 80 Festiwal", "city": "Gdańsk/Sopot", "genres": ["disco", "pop"], "lat": 54.3482907, "lon": 18.6540233, "precision": "city", "tier": "D", "date_start": "2026-11-27", "date_end": "2026-11-27"}, {"slug": "hype-disco-festiwal", "name": "Hype Disco Festiwal 2026", "city": "Szczecin / Lublin", "genres": ["disco polo", "muzyka taneczna"], "lat": 53.4298114, "lon": 14.5928676, "precision": "city", "tier": "D", "date_start": "2026-12-12", "date_end": "2026-12-12"}, {"slug": "hype-rap-fest", "name": "HYPE RAP FEST II", "city": "Gdańsk/Sopot", "genres": ["hip-hop", "rap"], "lat": 54.3482907, "lon": 18.6540233, "precision": "city", "tier": "C", "date_start": "2026-11-28", "date_end": "2026-11-28"}, {"slug": "hype-summer-festiwal", "name": "HYPE SUMMER FESTIWAL", "city": "Warszawa", "genres": ["disco", "pop", "dance", "nostalgic hits"], "lat": 52.2333742, "lon": 21.0711489, "precision": "city", "tier": "C", "date_start": "2026-08-30", "date_end": "2026-08-30"}, {"slug": "ii-festiwal-muzyki-ludowej-i-folkowej-na-polach", "name": "II Festiwal Muzyki Ludowej i Folkowej na Polach Grunwaldu", "city": "Olsztyn", "genres": ["muzyka ludowa", "folk"], "lat": 53.776644, "lon": 20.4777531, "precision": "city", "tier": "E", "date_start": "2026-05-02", "date_end": "2026-05-03"}, {"slug": "ii-miedzynarodowy-festiwal-muzyczny-im-tadeusza-bairda", "name": "II Międzynarodowy Festiwal Muzyczny im. Tadeusza Bairda", "city": "Zielona Góra", "genres": ["muzyka klasyczna", "muzyka symfoniczna", "muzyka kameralna"], "lat": 51.9275737, "lon": 15.5490421, "precision": "city", "tier": "D", "date_start": null, "date_end": null}, {"slug": "imielin-blues-festiwal", "name": "XV Imielin Blues Festiwal", "city": "Imielin", "genres": ["blues"], "lat": 50.1467621, "lon": 19.1854676, "precision": "city", "tier": "D", "date_start": "2026-11-14", "date_end": "2026-11-14"}, {"slug": "impact", "name": "Impact Festival", "city": "Kraków", "genres": ["rock"], "lat": 50.0469432, "lon": 19.9971534, "precision": "city", "tier": "D", "date_start": "2026-06-03", "date_end": "2026-06-03"}, {"slug": "ing-silesia-beats", "name": "ING Silesia Beats", "city": "Chorzów", "genres": ["elektroniczna", "dance", "pop"], "lat": 50.2978791, "lon": 18.9544466, "precision": "city", "tier": "D", "date_start": "2026-06-12", "date_end": "2026-06-13"}, {"slug": "injure-grind-attack", "name": "Injure Grind Attack VII", "city": "Zawiercie", "genres": ["death metal", "grindcore", "brutal death metal"], "lat": 50.5055879, "lon": 19.4717069, "precision": "city", "tier": "D", "date_start": "2026-06-26", "date_end": "2026-06-27"}, {"slug": "ino-pop-festiwal", "name": "Ino Pop Festiwal", "city": "Inowrocław", "genres": ["pop", "rock", "reggae", "hip-hop"], "lat": 52.7814643, "lon": 18.2463086, "precision": "city", "tier": "D", "date_start": "2026-06-05", "date_end": "2026-06-13"}, {"slug": "ino-rock-festival", "name": "Ino-Rock Festival", "city": "Inowrocław", "genres": ["rock progresywny", "rock"], "lat": 52.7814643, "lon": 18.2463086, "precision": "city", "tier": "D", "date_start": "2026-08-29", "date_end": "2026-08-31"}, {"slug": "inside-seaside", "name": "Inside Seaside", "city": "Gdańsk", "genres": ["indie rock", "electronic", "alternative pop", "jazz", "disco pop"], "lat": 54.3482907, "lon": 18.6540233, "precision": "city", "tier": "C", "date_start": "2026-11-13", "date_end": "2026-11-14"}, {"slug": "instytut-festival", "name": "Instytut Festival", "city": "Nowy Dwór Mazowiecki", "genres": ["electronic", "techno", "house"], "lat": 52.4306508, "lon": 20.7154712, "precision": "city", "tier": "C", "date_start": null, "date_end": null}, {"slug": "intertony-festival", "name": "InterTony Festival", "city": "Chojnice", "genres": ["metal", "hardcore", "crossover", "alternatywa"], "lat": 53.6999165, "lon": 17.5703461, "precision": "city", "tier": "C", "date_start": "2026-06-20", "date_end": "2026-06-20"}, {"slug": "it-s-a-trap-festival", "name": "It's a Trap Festival", "city": "Wrocław", "genres": ["hip-hop", "rap", "trap", "cloud rap"], "lat": 51.1263106, "lon": 16.9781963, "precision": "city", "tier": "D", "date_start": "2026-04-27", "date_end": "2026-04-27"}, {"slug": "iv-festiwal-piosenki-religijnej-w-rykach", "name": "IV Festiwal Piosenki Religijnej w Rykach", "city": "Ryki", "genres": ["piosenka religijna"], "lat": 51.6266968, "lon": 21.935696, "precision": "city", "tier": "E", "date_start": "2026-05-22", "date_end": "2026-05-24"}, {"slug": "izerbejdzan-punk-eko-fest", "name": "Izerbejdżan Punk Eko Fest", "city": "Pobiedna", "genres": ["punk", "punk rock", "rock"], "lat": 50.938891, "lon": 15.2969477, "precision": "city", "tier": "D", "date_start": "2026-08-28", "date_end": "2026-08-28"}, {"slug": "izero-hardcore-fest", "name": "Izero Hardcore Fest", "city": "Wolimierz", "genres": ["hardcore", "punk"], "lat": 50.9579652, "lon": 15.3142714, "precision": "city", "tier": "E", "date_start": "2026-06-26", "date_end": "2026-06-27"}, {"slug": "jarmarock-fest", "name": "JarmaRock FEST", "city": "Gdańsk", "genres": ["etno", "folk", "rock", "ska", "reggae", "funk", "jazz", "pop"], "lat": 54.3482907, "lon": 18.6540233, "precision": "city", "tier": "E", "date_start": "2026-11-20", "date_end": "2026-11-21"}, {"slug": "jazz-around-festival", "name": "Jazz Around Festival", "city": "Poznań", "genres": ["jazz", "funk", "soul", "groove", "fusion", "world music"], "lat": 52.4006632, "lon": 16.9197326, "precision": "city", "tier": "D", "date_start": "2026-08-13", "date_end": "2026-08-15"}, {"slug": "jazz-for-freedom", "name": "Jazz for Freedom", "city": "Bydgoszcz", "genres": ["jazz"], "lat": 53.1297127, "lon": 18.0294488, "precision": "city", "tier": "D", "date_start": "2026-04-30", "date_end": "2026-05-01"}, {"slug": "jazz-od-nowa-festival", "name": "Jazz Od Nowa Festival", "city": "Toruń", "genres": ["jazz"], "lat": 53.0102721, "lon": 18.6048094, "precision": "city", "tier": "D", "date_start": "2026-10-14", "date_end": "2026-10-17"}, {"slug": "jazz-w-lesie", "name": "Jazz w Lesie", "city": "Sulęczyno", "genres": ["jazz"], "lat": 54.2337562, "lon": 17.7744375, "precision": "city", "tier": "D", "date_start": "2026-07-24", "date_end": "2026-07-25"}, {"slug": "jazz-w-miescie", "name": "Jazz w Mieście", "city": "Lublin", "genres": ["jazz"], "lat": 51.250559, "lon": 22.5701022, "precision": "city", "tier": "D", "date_start": "2026-07-14", "date_end": "2026-07-19"}, {"slug": "jesienny-festiwal-muzyczny-alkagran", "name": "Jesienny Festiwal Muzyczny Alkagran", "city": "Czechowice-Dziedzice", "genres": ["muzyka poważna", "akordeon"], "lat": 49.9112146, "lon": 19.007564, "precision": "city", "tier": "E", "date_start": "2026-09-29", "date_end": null}, {"slug": "jimiway-blues-festival", "name": "Jimiway Blues Festival", "city": "Ostrów Wielkopolski", "genres": ["blues", "blues-rock", "soul", "funk"], "lat": 51.6471864, "lon": 17.8037607, "precision": "city", "tier": "C", "date_start": "2026-10-16", "date_end": "2026-10-17"}, {"slug": "juwenalia-biaystok", "name": "Juwenalia Białystok", "city": "Białystok", "genres": ["muzyka", "pop", "rock"], "lat": 53.132398, "lon": 23.1591679, "precision": "city", "tier": "C", "date_start": "2026-05-15", "date_end": "2026-05-16"}, {"slug": "juwenalia-bydgoskie", "name": "Juwenalia Bydgoskie", "city": "Bydgoszcz", "genres": ["muzyka", "kultura studencka", "rozrywka"], "lat": 53.1297127, "lon": 18.0294488, "precision": "city", "tier": "D", "date_start": "2026-05-15", "date_end": "2026-05-16"}, {"slug": "juwenalia-gdanskie", "name": "Juwenalia Gdańskie 2026", "city": "Gdańsk", "genres": ["pop", "muzyka współczesna", "rozrywka"], "lat": 54.3482907, "lon": 18.6540233, "precision": "city", "tier": "D", "date_start": "2026-05-08", "date_end": "2026-05-09"}, {"slug": "juwenalia-odz", "name": "Juwenalia Łódź", "city": "Łódź", "genres": ["różne", "pop", "elektroniczna"], "lat": 51.7728245, "lon": 19.4784857, "precision": "city", "tier": "E", "date_start": "2026-05-29", "date_end": "2026-05-30"}, {"slug": "juwenalia-poznan", "name": "Juwenalia Poznań", "city": "Poznań", "genres": ["pop", "rock", "muzyka ogólna"], "lat": 52.4006632, "lon": 16.9197326, "precision": "city", "tier": "E", "date_start": "2026-05-28", "date_end": "2026-05-30"}, {"slug": "juwenalia-radom", "name": "Juwenalia Radom", "city": "Radom", "genres": ["muzyka na żywo", "DJ", "hip-hop", "reggae"], "lat": 51.4022557, "lon": 21.1541546, "precision": "city", "tier": "E", "date_start": "2026-05-21", "date_end": "2026-05-23"}, {"slug": "juwenalia-rzeszow", "name": "Rzeszowskie Juwenalia", "city": "Rzeszów", "genres": ["muzyka rozrywkowa", "pop", "różne gatunki"], "lat": 50.013319, "lon": 22.0161677, "precision": "city", "tier": "D", "date_start": "2026-05-08", "date_end": "2026-05-09"}, {"slug": "juwenalia-slaskie", "name": "Juwenalia Śląskie", "city": "Katowice", "genres": ["rap", "muzyka alternatywna", "hip-hop"], "lat": 50.2598987, "lon": 19.0215852, "precision": "city", "tier": "C", "date_start": "2026-05-21", "date_end": "2026-05-23"}, {"slug": "juwenalia-szczecin", "name": "Juwenalia Szczecin", "city": "Szczecin", "genres": ["muzyka rozrywkowa", "pop", "rock"], "lat": 53.4298114, "lon": 14.5928676, "precision": "city", "tier": "D", "date_start": "2026-05-21", "date_end": "2026-05-23"}, {"slug": "juwenalia-warszawa", "name": "Juwenalia Warszawa", "city": "Warszawa", "genres": ["muzyka rozrywkowa", "pop", "rock"], "lat": 52.2333742, "lon": 21.0711489, "precision": "city", "tier": "E", "date_start": "2026-05-30", "date_end": "2026-05-30"}, {"slug": "juwenalia-wrocawskie", "name": "Juwenalia Wrocławskie", "city": "Wrocław", "genres": ["muzyka", "festiwal studencki"], "lat": 51.1263106, "lon": 16.9781963, "precision": "city", "tier": "D", "date_start": "2026-05-08", "date_end": "2026-05-09"}, {"slug": "kielce-rockuja", "name": "Festiwal Kielce ROCKują", "city": "Kielce", "genres": ["rock", "blues"], "lat": 50.8719903, "lon": 20.6310488, "precision": "city", "tier": "D", "date_start": "2026-01-17", "date_end": "2026-01-18"}, {"slug": "klasyka-warszawy", "name": "III Festiwal Klasyka Warszawy", "city": "Warszawa", "genres": ["muzyka poważna", "klasyczna"], "lat": 52.2333742, "lon": 21.0711489, "precision": "city", "tier": "C", "date_start": "2026-02-18", "date_end": "2026-02-27"}, {"slug": "komeda-jazz-festival", "name": "Komeda Jazz Festival", "city": "Słupsk, Gdańsk", "genres": ["jazz"], "lat": 54.4635771, "lon": 17.020948, "precision": "city", "tier": "C", "date_start": "2026-11-05", "date_end": null}, {"slug": "koszalin-bassfest", "name": "Koszalin BassFest!", "city": "Koszalin", "genres": ["klasyczna", "kontrabas"], "lat": 54.2071799, "lon": 16.2175411, "precision": "city", "tier": "D", "date_start": null, "date_end": null}, {"slug": "krajowy-festiwal-piosenki-polskiej", "name": "Krajowy Festiwal Piosenki Polskiej w Opolu", "city": "Opole", "genres": ["polska piosenka", "muzyka polska"], "lat": 50.6787929, "lon": 17.9298844, "precision": "city", "tier": "A", "date_start": "2026-06-04", "date_end": "2026-06-07"}, {"slug": "krajowy-festiwal-piosenki-w-opolu", "name": "Krajowy Festiwal Piosenki w Opolu", "city": "Opole", "genres": ["piosenka polska", "muzyka polska"], "lat": 50.6787929, "lon": 17.9298844, "precision": "city", "tier": "D", "date_start": "2026-06-04", "date_end": "2026-06-07"}, {"slug": "krajowy-festiwal-polskiej-piosenki", "name": "Krajowy Festiwal Polskiej Piosenki w Opolu", "city": "Opole", "genres": ["piosenka polska", "muzyka popularna", "hip-hop"], "lat": 50.6787929, "lon": 17.9298844, "precision": "city", "tier": "D", "date_start": "2026-06-04", "date_end": "2026-06-07"}, {"slug": "krakow-celtic-festival", "name": "Kraków Celtic Festival", "city": "Kraków", "genres": ["Celtic music", "Celtic dance", "Celtic culture"], "lat": 50.0469432, "lon": 19.9971534, "precision": "city", "tier": "D", "date_start": "2026-09-04", "date_end": "2026-09-06"}, {"slug": "krakow-dance-festival", "name": "Kraków Dance Festival", "city": "Kraków", "genres": ["contemporary dance", "choreography"], "lat": 50.0469432, "lon": 19.9971534, "precision": "city", "tier": "D", "date_start": "2026-08-01", "date_end": "2026-08-09"}, {"slug": "krakow-jazz-festival", "name": "Międzynarodowy Festiwal «Starzy i Młodzi, czyli Jazz w Krakowie»", "city": "Kraków", "genres": ["jazz"], "lat": 50.0469432, "lon": 19.9971534, "precision": "city", "tier": "D", "date_start": "2026-05-12", "date_end": "2026-06-21"}, {"slug": "krakow-jazz-festiwal", "name": "Starzy i Młodzi, czyli Jazz w Krakowie / Kraków Jazz Festiwal", "city": "Kraków", "genres": ["jazz"], "lat": 50.0469432, "lon": 19.9971534, "precision": "city", "tier": "E", "date_start": "2026-05-12", "date_end": "2026-06-21"}, {"slug": "krakow-jazz-week", "name": "Kraków Jazz Week", "city": "Kraków", "genres": ["jazz"], "lat": 50.0469432, "lon": 19.9971534, "precision": "city", "tier": "D", "date_start": "2026-09-26", "date_end": "2026-10-03"}, {"slug": "krakowski-miedzynarodowy-festiwal-kompozytorow", "name": "Krakowski Międzynarodowy Festiwal Kompozytorów", "city": "Kraków", "genres": ["muzyka współczesna", "muzyka klasyczna"], "lat": 50.0469432, "lon": 19.9971534, "precision": "city", "tier": "C", "date_start": "2026-05-09", "date_end": "2026-05-17"}, {"slug": "krakowskie-zaduszki-jazzowe", "name": "Krakowskie Zaduszki Jazzowe", "city": "Kraków", "genres": ["jazz"], "lat": 50.0469432, "lon": 19.9971534, "precision": "city", "tier": "D", "date_start": "2026-11-05", "date_end": "2026-11-08"}, {"slug": "krokus-jazz-festiwal", "name": "Krokus Jazz Festiwal", "city": "Jeleniogórska", "genres": ["jazz"], "lat": 52.2698405, "lon": 21.0838407, "precision": "city", "tier": "D", "date_start": "2026-10-22", "date_end": "2026-10-25"}, {"slug": "labirynt", "name": "Labirynt Festiwal", "city": "Łódź", "genres": ["reggae", "techno", "funk", "drum and bass", "ambient", "elektroniczna"], "lat": 51.7728245, "lon": 19.4784857, "precision": "city", "tier": "C", "date_start": "2026-06-03", "date_end": "2026-06-03"}, {"slug": "letni-festiwal-muzyczny-pockiej-orkiestry-symfonicznej", "name": "Letni Festiwal Muzyczny Płockiej Orkiestry Symfonicznej", "city": "Płock", "genres": ["muzyka klasyczna", "muzyka symfoniczna"], "lat": 52.5464521, "lon": 19.7008606, "precision": "city", "tier": "D", "date_start": "2026-06-12", "date_end": null}, {"slug": "letni-festiwal-opery-krakowskiej", "name": "Letni Festiwal Opery Krakowskiej", "city": "Kraków", "genres": ["opera", "operetka", "muzyka klasyczna"], "lat": 50.0469432, "lon": 19.9971534, "precision": "city", "tier": "D", "date_start": "2026-06-19", "date_end": "2026-06-25"}, {"slug": "letni-festiwal-polskiej-opery-krolewskiej", "name": "Letni Festiwal Polskiej Opery Królewskiej", "city": "Warszawa", "genres": ["opera", "muzyka klasyczna"], "lat": 52.2333742, "lon": 21.0711489, "precision": "city", "tier": "D", "date_start": "2026-06-19", "date_end": "2026-07-25"}, {"slug": "letni-jurajski-festiwal-muzyczny", "name": "Letni Jurajski Festiwal Muzyczny", "city": "Częstochowa", "genres": ["muzyka klasyczna"], "lat": 50.8089997, "lon": 19.1244089, "precision": "city", "tier": "D", "date_start": "2026-06-28", "date_end": null}, {"slug": "letnie-brzmienia", "name": "Santander Letnie Brzmienia", "city": "Kraków, Warszawa, Gdańsk, Wrocław, Poznań", "genres": ["pop", "muzyka polska"], "lat": 50.0469432, "lon": 19.9971534, "precision": "city", "tier": "C", "date_start": "2026-07-24", "date_end": "2026-09-05"}, {"slug": "liga-rocka", "name": "Liga Rocka", "city": "Jelenia Góra", "genres": ["rock"], "lat": 50.8501049, "lon": 15.6537492, "precision": "city", "tier": "E", "date_start": "2026-01-16", "date_end": "2026-05-22"}, {"slug": "light-move-festival", "name": "Light Move Festival", "city": "Łódź", "genres": ["light art", "kinetic art", "3D mapping"], "lat": 51.7728245, "lon": 19.4784857, "precision": "city", "tier": "D", "date_start": "2026-09-25", "date_end": "2026-09-27"}, {"slug": "liswartarock-festiwal", "name": "Liswartarock Festiwal", "city": "Zawady", "genres": ["rock", "metal", "punk"], "lat": 53.1553435, "lon": 22.6666631, "precision": "city", "tier": "E", "date_start": "2026-06-27", "date_end": "2026-06-27"}, {"slug": "lost-generation-festival", "name": "Lost Generation Festival", "city": "Kraków", "genres": ["rock", "punk rock", "alternative rock"], "lat": 50.0469432, "lon": 19.9971534, "precision": "city", "tier": "D", "date_start": "2026-06-16", "date_end": "2026-06-16"}, {"slug": "love-polish-jazz-festival", "name": "Love Polish Jazz Festival", "city": "Tomaszów Mazowiecki", "genres": ["jazz"], "lat": 51.5316918, "lon": 20.0084195, "precision": "city", "tier": "D", "date_start": "2026-09-18", "date_end": "2026-09-20"}, {"slug": "lublin-jazz-festiwal", "name": "Lublin Jazz Festiwal: Forever Ahead", "city": "Lublin", "genres": ["jazz"], "lat": 51.250559, "lon": 22.5701022, "precision": "city", "tier": "D", "date_start": "2026-07-15", "date_end": "2026-07-19"}, {"slug": "lublin-rock-the-square-festiwal", "name": "Lublin Rock the Square Festiwal", "city": "Lublin", "genres": ["hard rock", "heavy metal", "gothic rock"], "lat": 51.250559, "lon": 22.5701022, "precision": "city", "tier": "D", "date_start": "2026-06-11", "date_end": "2026-06-29"}, {"slug": "lubliner-festival", "name": "Lubliner Festival - Festiwal Kultury Żydowskiej", "city": "Lublin", "genres": ["muzyka żydowska", "kultura żydowska", "muzyka tradycyjna"], "lat": 51.250559, "lon": 22.5701022, "precision": "city", "tier": "D", "date_start": "2026-08-02", "date_end": "2026-08-08"}, {"slug": "lubuski-festiwal-muzyczny", "name": "Lubuski Festiwal Muzyczny", "city": "Zielona Góra / Łagów", "genres": ["muzyka klasyczna", "muzyka filmowa", "różne gatunki"], "lat": 51.9275737, "lon": 15.5490421, "precision": "city", "tier": "E", "date_start": "2026-05-28", "date_end": null}, {"slug": "lubuski-festiwal-piosenki-pro-arte", "name": "Lubuski Festiwal Piosenki PRO ARTE", "city": "Żary", "genres": ["piosenka", "muzyka"], "lat": 51.6385162, "lon": 15.1422487, "precision": "city", "tier": "D", "date_start": "2026-06-26", "date_end": "2026-06-28"}, {"slug": "luzik-fest", "name": "Luzik Fest - Gorczański Festiwal Muzyki Niezależnej", "city": "Maniowy", "genres": ["rock", "punk", "ska", "reggae", "metal", "hardcore"], "lat": 49.4622808, "lon": 20.2687022, "precision": "city", "tier": "E", "date_start": "2026-07-24", "date_end": "2026-07-24"}, {"slug": "lyski-rock-festival", "name": "Lyski Rock Festival", "city": "Lyski", "genres": ["rock"], "lat": 50.1201928, "lon": 18.39024, "precision": "city", "tier": "E", "date_start": "2026-08-28", "date_end": "2026-08-28"}, {"slug": "magiczne-zakonczenie-wakacji", "name": "Festiwal Magiczne Zakończenie Wakacji", "city": "Kielce", "genres": ["kabaret", "rock", "muzyka pop"], "lat": 50.8719903, "lon": 20.6310488, "precision": "city", "tier": "D", "date_start": "2026-08-25", "date_end": "2026-08-27"}, {"slug": "maj-bzy-rybnik-i-ty", "name": "Maj, bzy, Rybnik i Ty", "city": "Rybnik", "genres": ["pop", "muzyka rozrywkowa"], "lat": 50.0955793, "lon": 18.5419933, "precision": "city", "tier": "D", "date_start": "2026-05-01", "date_end": "2026-05-03"}, {"slug": "malta-festival", "name": "Malta Festival", "city": "Poznań", "genres": ["muzyka", "teatr", "taniec", "film", "sztuki wizualne"], "lat": 52.4006632, "lon": 16.9197326, "precision": "city", "tier": "D", "date_start": "2026-06-21", "date_end": "2026-06-28"}, {"slug": "maopolski-festiwal-artystyczny-modziezy", "name": "Małopolski Festiwal Artystyczny Młodzieży", "city": "Kraków", "genres": ["muzyka", "teatr", "taniec", "plastyka", "film", "fotografia"], "lat": 50.0469432, "lon": 19.9971534, "precision": "city", "tier": "D", "date_start": "2026-04-20", "date_end": "2026-05-11"}, {"slug": "materia-fest", "name": "Materia Fest", "city": "Szczecinek", "genres": ["metal"], "lat": 53.708021, "lon": 16.6943922, "precision": "city", "tier": "E", "date_start": "2026-08-28", "date_end": "2026-08-29"}, {"slug": "materiafest", "name": "Materiafest XIV", "city": "Szczecinek", "genres": ["metal", "rock"], "lat": 53.708021, "lon": 16.6943922, "precision": "city", "tier": "D", "date_start": "2026-08-28", "date_end": "2026-08-29"}, {"slug": "mayday-rock-festiwal", "name": "Mayday Rock Festiwal", "city": "Głogów", "genres": ["rock"], "lat": 51.6634169, "lon": 16.0860805, "precision": "city", "tier": "E", "date_start": "2026-11-10", "date_end": "2026-11-10"}, {"slug": "mazurskie-lato-muzyczne", "name": "Mazurskie Lato Muzyczne", "city": "Ełk", "genres": ["pop", "hip-hop", "muzyka rozrywkowa"], "lat": 53.8248304, "lon": 22.3615813, "precision": "city", "tier": "D", "date_start": "2026-06-20", "date_end": "2026-06-20"}, {"slug": "mazury-hip-hop-festiwal", "name": "Mazury Hip Hop Festiwal 2026 Reborn", "city": "Giżycko", "genres": ["hip-hop", "rap"], "lat": 54.0361354, "lon": 21.7661326, "precision": "city", "tier": "C", "date_start": "2026-07-16", "date_end": "2026-07-18"}, {"slug": "memorial-to-miles", "name": "Memorial to Miles – Targi Kielce Jazz Festival", "city": "Kielce", "genres": ["jazz"], "lat": 50.8719903, "lon": 20.6310488, "precision": "city", "tier": "D", "date_start": "2026-09-25", "date_end": "2026-09-27"}, {"slug": "meskie-granie-orkiestra", "name": "Męskie Granie 2026", "city": "Gdańsk", "genres": ["rock", "pop"], "lat": 54.3482907, "lon": 18.6540233, "precision": "city", "tier": "E", "date_start": "2026-07-17", "date_end": "2026-07-18"}, {"slug": "metal-kommando-fest", "name": "Metal Kommando Fest", "city": "Warszawa", "genres": ["metal", "black metal", "death metal"], "lat": 52.2333742, "lon": 21.0711489, "precision": "city", "tier": "E", "date_start": "2026-05-09", "date_end": "2026-05-09"}, {"slug": "metalowa-wigilia", "name": "Metalowa Wigilia X-Mass 2026", "city": "Warszawa, Poznań, Wrocław, Kraków", "genres": ["metal", "extreme metal", "death metal", "black metal"], "lat": 52.2333742, "lon": 21.0711489, "precision": "city", "tier": "E", "date_start": "2026-12-17", "date_end": "2026-12-20"}, {"slug": "metropolis-jazz-festival", "name": "Metropolis Jazz Festival", "city": "Toruń", "genres": ["jazz"], "lat": 53.0102721, "lon": 18.6048094, "precision": "city", "tier": "D", "date_start": "2026-03-06", "date_end": "2026-12-04"}, {"slug": "miedzynarodowy-festiwal-ambientalny", "name": "Międzynarodowy Festiwal Ambientalny", "city": "Wrocław", "genres": ["ambient", "muzyka eksperymentalna", "jazz", "muzyka klasyczna"], "lat": 51.1263106, "lon": 16.9781963, "precision": "city", "tier": "D", "date_start": null, "date_end": null}, {"slug": "miedzynarodowy-festiwal-anny-german", "name": "Międzynarodowy Festiwal Anny German", "city": "Warszawa", "genres": ["muzyka wokalalna", "śpiew"], "lat": 52.2333742, "lon": 21.0711489, "precision": "city", "tier": "D", "date_start": "2026-02-18", "date_end": "2026-03-29"}, {"slug": "miedzynarodowy-festiwal-czyste-country", "name": "Międzynarodowy Festiwal Czyste Country", "city": "Wolsztyn", "genres": ["country", "americana"], "lat": 52.11725, "lon": 16.1126622, "precision": "city", "tier": "D", "date_start": "2026-08-07", "date_end": "2026-08-09"}, {"slug": "miedzynarodowy-festiwal-duetow-fortepianowych-duettissimo", "name": "Międzynarodowy Festiwal Duetów Fortepianowych Duettissimo", "city": "Kraków", "genres": ["muzyka klasyczna", "fortepian"], "lat": 50.0469432, "lon": 19.9971534, "precision": "city", "tier": "C", "date_start": "2026-04-09", "date_end": "2026-04-17"}, {"slug": "miedzynarodowy-festiwal-folkloru", "name": "Międzynarodowy Festiwal Folkloru Ożarów Mazowiecki", "city": "Ożarów Mazowiecki", "genres": ["folklor", "muzyka tradycyjna", "taniec"], "lat": 52.2080548, "lon": 20.7941606, "precision": "city", "tier": "D", "date_start": "2026-07-28", "date_end": "2026-08-02"},